business_id,state,longitude,latitude,name,stars,catstr,ClustNum,Area,Number members,Density,AvgRating
RZma06CqXbOIMzTQL-eJFQ,QC,-73.6355805,45.5891369,La Cage Aux Sports,2.0,Pubs|Bars|Sports Bars|Nightlife,32,12094,1,8.26856292376e-05,2.0
GxfgoiDLfs7HC8C_wFsGPw,QC,-73.5745769,45.5486711,Boulangerie Première Moisson,4.5,Bakeries|Food,56,3203,10,0.00312207305651,3.65
g8Ja8BKskzmWHX9VH7B2yg,QC,-73.5661658,45.5519428,Rose ou Bleu,3.0,Children's Clothing|Fashion|Shopping|Baby Gear & Furniture,56,3203,10,0.00312207305651,3.65
RySnetMQUJKbbtliTt4Nmw,QC,-73.5497216802,45.559631897,Biodôme de Montréal,3.5,Museums|Active Life|Arts & Entertainment|Botanical Gardens|Aquariums,61,975,19,0.0194871794872,3.68421052632
dvXKsHW_WIdRbbE_Jsxx3A,QC,-73.5481807929,45.5613787346,Cineplex- Starcité,3.5,Arts & Entertainment|Cinema,61,975,19,0.0194871794872,3.68421052632
JqlT41fOvgMQnbL_ZhLtZw,QC,-73.5637160508,45.5421594835,Loblaws,4.0,Food|Grocery,4,2941,12,0.00408024481469,4.08333333333
FRoFkp1YGqziKAk5HAj55w,QC,-73.6146694,45.560849,Cirque Du Soleil,5.0,Arts & Entertainment|Performing Arts,41,7908,8,0.00101163378857,4.3125
fNlndRtXwA270PSmPKnXfQ,QC,-73.550291,45.562381,Centre Pierre Charbonneau,2.5,,61,975,19,0.0194871794872,3.68421052632
kPFS2EnXDFcddYslkaMqKw,QC,-73.5619298,45.54135,Spa Escale Sante,4.5,Massage|Beauty & Spas,4,2941,12,0.00408024481469,4.08333333333
6MSbS90XvNHz8-rUWIg1gA,QC,-73.6201691006,45.5572348027,Canadian Tire,3.5,Tires|Automotive|Auto Repair,41,7908,8,0.00101163378857,4.3125
z5Hd_UOjwiSEGPmOFlSCJw,QC,-73.5966302,45.5790576,Buffet Roma,5.0,Event Planning & Services|Venues & Event Spaces|Caterers,80,869,5,0.00575373993096,3.3
Oqr5zMLM2H7kJCbdc6A8Yg,QC,-73.5728748,45.5571482,Coop De Taxi De Montreal,1.5,Hotels & Travel|Taxis|Transportation,56,3203,10,0.00312207305651,3.65
H36YxCHOChB1ptvFG4mBgA,QC,-73.6099293,45.5995465,Cinemas Guzzo,2.5,Arts & Entertainment|Cinema,58,1547,4,0.00258564964447,3.75
ye1TV6mbqDdlN5K1275WWw,QC,-73.5853697,45.5856704,Mayrand,4.5,Food|Specialty Food|Grocery|Fruits & Veggies|Meat Shops,80,869,5,0.00575373993096,3.3
CEkOJGQI4oieQR5KrQfnjw,QC,-73.5108329,45.6374904,Boucherie Beau-bien,4.5,Food|Specialty Food|Meat Shops,55,32286,1,3.09731772285e-05,4.5
aBD8uijs4_isgDzD-b9sNA,QC,-73.544272,45.592656,Homesense,4.5,Shopping|Home Decor|Home & Garden,33,1355,3,0.00221402214022,3.66666666667
_XLzRV_NC2nwoppQ94goKQ,QC,-73.5934641,45.5816167,Gallo Nero Restaurant Statoria,1.5,,80,869,5,0.00575373993096,3.3
MJ85aI86O8rgceI30ZKmtw,QC,-73.6121404,45.5840495,Coiff Inter-Bella,3.5,Hair Salons|Beauty & Spas|Nail Salons,58,1547,4,0.00258564964447,3.75
jdya5JGhDwisyzHTJZy7QA,QC,-73.5719499,45.5989099,Quality Hotel,3.5,Hotels & Travel|Event Planning & Services|Hotels,14,797,7,0.00878293601004,3.28571428571
yRwiB5yr8FZmMV95hb-FRA,QC,-73.5419068,45.5918938,Place Versailles,3.5,Shopping Centers|Shopping,33,1355,3,0.00221402214022,3.66666666667
rktD-6bsUPD8vEoK2MrUcA,QC,-73.5451368,45.5571298,Pro Gym Serge Moreau,4.0,Active Life|Gyms|Fitness & Instruction,61,975,19,0.0194871794872,3.68421052632
kGzeAO3S76mkv9O_Q9bWsQ,QC,-73.6035826,45.5695928,Addison Électronique,4.5,Electronics|Shopping,41,7908,8,0.00101163378857,4.3125
b-zECNSSEXAyYo_z2Z3_Zw,QC,-73.6034419,45.6069227,Fruits De Mer United Seafood Ltee,4.5,Food|Specialty Food|Seafood Markets,58,1547,4,0.00258564964447,3.75
uXdO8jXV3Mtd63Zu2MTgpA,QC,-73.5388454,45.5603042,Titanium Era,1.5,Shopping|Jewelry,11,91726,8,8.72162745568e-05,3.6875
39o-BAtkASkBYm521mEwOQ,QC,-73.5757011,45.5913646,Monsieur Felix Mr Norton,4.0,Food,14,797,7,0.00878293601004,3.28571428571
vJtlcSMiNgvHI1i_rL1K2Q,QC,-73.5835999,45.6084717,Costco Anjou,3.5,Shopping|Wholesale Stores,14,797,7,0.00878293601004,3.28571428571
tRVmSSQnA7PFrmCJ_iTJ1A,QC,-73.5612239,45.5421095,Canadian Tire Magasins Associes,3.5,Auto Repair|Automotive,4,2941,12,0.00408024481469,4.08333333333
x0vX7Iq6zpO54YDeMB4Rrw,QC,-73.5392456,45.5676037,Action Commando Paintball Gokarting Montreal,4.0,Active Life|Go Karts|Sporting Goods|Shopping|Paintball,11,91726,8,8.72162745568e-05,3.6875
UC_eKYDgdvYZgMHAXjpTEQ,QC,-73.6390154,45.5715576,Maison Du Ravioli (La Casa),4.5,Food|Event Planning & Services|Caterers,74,986,7,0.00709939148073,4.28571428571
WPPmpk-WbG3n49uuYX-uSQ,QC,-73.5611227,45.6207225,Purolator Courrier Ltee,1.0,Local Services|Shipping Centers,14,797,7,0.00878293601004,3.28571428571
-hL-b301EFFrHIjiTYGGXA,QC,-73.5737445,45.5798444,Hopital Santa Cabrini,1.5,Hospitals|Medical Centers|Health & Medical,80,869,5,0.00575373993096,3.3
I8pd8aYA_1O2wN1__djpCA,QC,-73.5733473,45.5509028,Alimentation Poivre & Sel,3.5,Food|Specialty Food|Grocery,56,3203,10,0.00312207305651,3.65
1SUqulupcGxHYgmEFIAO7Q,QC,-73.5532861,45.5657655,Hotel Universel Montréal,2.0,Hotels & Travel|Event Planning & Services|Hotels,61,975,19,0.0194871794872,3.68421052632
33vPohEYdILThOfee6wDng,QC,-73.5438237,45.546752,Biscuiterie Oscar,4.5,Food|Desserts,59,272,9,0.0330882352941,4.0
a5XVf5KcJ1eD7IeEpM1qGg,QC,-73.6161197,45.5583497,Tohu Cite Des Arts Du Cirque,3.5,Arts & Entertainment|Performing Arts,41,7908,8,0.00101163378857,4.3125
3lYFFpIAWYLune0-Xa0EXg,QC,-73.5416161,45.5381057,L'Hôtel Auberge Manoir Ville Marie,2.5,Hotels & Travel|Event Planning & Services|Hotels,59,272,9,0.0330882352941,4.0
xoslU9yoIFA0Cqv2ybaXrQ,QC,-73.6016164,45.5726283,Restaurant Wing Phat,4.5,Food|Grocery,41,7908,8,0.00101163378857,4.3125
XBt-bIg4a9bKWR2oXdcLnA,QC,-73.5390951,45.588952,Auberge Royal Versailles,3.0,Hotels & Travel|Event Planning & Services|Venues & Event Spaces|Hotels,33,1355,3,0.00221402214022,3.66666666667
JKzn7mDPaAC8JDXMoQdMVg,QC,-73.5665729,45.5112538,Katacömbes,4.0,Bars|Arts & Entertainment|Nightlife|Music Venues,47,112753,60,0.000532136617208,3.64166666667
foYjJRxzZWYOmJqENkongg,QC,-73.5575741,45.5033549,Photo Service,3.5,Hobby Shops|Shopping|Photography Stores & Services,0,207,65,0.314009661836,3.95384615385
RDMDs_Ec1rZATYo4kwfZIA,QC,-73.5577843,45.5129475,Molson Canada,3.5,Food|Breweries,47,112753,60,0.000532136617208,3.64166666667
5LBVJ2_UslInSx5n7D__xQ,QC,-73.5548400879,45.5190978381,Priape,4.5,Shopping|Adult,18,345,69,0.2,3.69565217391
PhFAS7YNCZArHY64XVRc_Q,QC,-73.5755746,45.5210943,Au Coin Duluth,4.0,"Food|Beer, Wine & Spirits|Convenience Stores",87,7805,44,0.00563741191544,3.97727272727
tygyp6bpawJlUiJfB2vtjg,QC,-73.5951101,45.519511,Copie 2000,2.0,Local Services|Printing Services,49,75083,48,0.000639292516282,3.84375
vudJx4FEIW9sGC2Qj0Lhwg,QC,-73.5575084,45.5171956,Jet Club,1.5,Shopping|Nightlife|Comedy Clubs,18,345,69,0.2,3.69565217391
4lSqXS5Yf8EM2-j0kQg5tg,QC,-73.5788946,45.5221108,Zone,3.5,Shopping|Home Decor|Interior Design|Home & Garden|Kitchen & Bath|Home Services,20,158784,56,0.000352680370818,3.86607142857
sr-i_4EXLv9ni9C4KP1eYQ,QC,-73.5804356,45.5194272,Bicycletterie J R,3.0,Active Life|Sporting Goods|Bikes|Shopping|Bike Rentals,72,6015,44,0.00731504571904,4.01136363636
QmA6vP2_gnhvinBLzw2wHg,QC,-73.5718433,45.5141692,Kamasutra Club,2.5,Adult Entertainment|Nightlife,7,300,73,0.243333333333,3.82191780822
3x-wMbYPbuEqqJWIAihwhA,QC,-73.6163248,45.5354762,Boulangerie Première Moisson,4.5,Bakeries|Food,88,1355,54,0.039852398524,4.22222222222
czP0Smfm1tlIRcUXbFzBtQ,QC,-73.5987166,45.5255108,Monastiraki,4.0,Arts & Entertainment|Art Galleries|Shopping|Antiques,94,4757,41,0.00861887744377,4.07317073171
VAB7Bf57wB0n1JG2D3D7Vg,QC,-73.5871478,45.5294895,Kaaz Coiffure,4.5,Beauty & Spas,82,1715,18,0.0104956268222,3.94444444444
veY7yjzo5K3oDLgGqVQ_cg,QC,-73.5897823,45.5215585,Equilibrium Yoga,4.5,Active Life|Yoga|Specialty Schools|Education|Fitness & Instruction,97,507,57,0.112426035503,3.9649122807
D5o-01CPEq0a2Ct-UyQBBA,QC,-73.5493578,45.5259098,Les Delices D'amandine,4.0,Bakeries|Food,18,345,69,0.2,3.69565217391
VUkpZpwGtVqKyuKqA4yG5Q,QC,-73.5560932,45.5057013,Europea Espace Boutique,3.5,Shopping|Food|Arts & Crafts|Caterers|Specialty Food|Event Planning & Services,0,207,65,0.314009661836,3.95384615385
tGtebRdfooQLdOUza0xmFg,QC,-73.5789272,45.5168736,Segal's Market,4.0,Food|Grocery,72,6015,44,0.00731504571904,4.01136363636
tlbDEz7YHDo4diBKf8cynQ,QC,-73.5730394,45.5188633,Bar Salon Officiel,4.0,Pubs|Bars|Nightlife,87,7805,44,0.00563741191544,3.97727272727
LQ0H3oAAlca6v0GuNLcWbw,QC,-73.5769646,45.5214309,Anne Ma Soeur Anne,4.0,Hotels & Travel|Event Planning & Services|Hotels,87,7805,44,0.00563741191544,3.97727272727
Ryb3vMvCEDjoo2BB9pN4cA,QC,-73.6163106,45.5390068,Restaurant Trang An,2.5,,88,1355,54,0.039852398524,4.22222222222
8naIIp3qakWuNGXM9OmIMQ,QC,-73.5750382,45.5252042,Cycle Pop,3.5,Active Life|Sporting Goods|Bikes|Shopping|Bike Rentals,87,7805,44,0.00563741191544,3.97727272727
fyq8epeeYBXDAeOvBp-xrQ,QC,-73.5573360001,45.5055146295,Le Place d'Armes Hôtel & Suites,4.0,Hotels & Travel|Event Planning & Services|Hotels,0,207,65,0.314009661836,3.95384615385
r_IIw6wAh9YeGFFVi-vo7Q,QC,-73.5542822,45.530086,Espace Libre,4.0,Arts & Entertainment|Performing Arts,18,345,69,0.2,3.69565217391
g9C_ZSztWJ3sKjfdRL1zFw,QC,-73.5551934,45.5195697,Bar L'aigle Noir,3.5,Nightlife,18,345,69,0.2,3.69565217391
NaIF5ywG93q0i25czpCgLA,QC,-73.5637971,45.5152391,Le Saint-Sulpice,3.5,Bars|Nightlife|Karaoke,64,3428,62,0.0180863477246,3.79032258065
5i27KlDoPPJ7vuHoUTQCGQ,QC,-73.5602232,45.5164437,Auberge Pomerol Le,3.0,Hotels & Travel|Event Planning & Services|Hotels,18,345,69,0.2,3.69565217391
p9saqWBDxV-bl9q7ogrjyQ,QC,-73.582257,45.523651,Crémerie Meu Meu,4.5,Food|Ice Cream & Frozen Yogurt|Desserts,20,158784,56,0.000352680370818,3.86607142857
XPNJt0zir6OmimaSk83tCw,QC,-73.5877673,45.5186123,Clinique Vétérinaire Plateau Mont-Royal,4.0,Veterinarians|Pets,97,507,57,0.112426035503,3.9649122807
bjf8Pkqz-aJ-QreUVqdvew,QC,-73.590953,45.5221047,Theatre Espace Go,4.5,Arts & Entertainment|Cinema|Performing Arts,49,75083,48,0.000639292516282,3.84375
e9qNHuBx68NEUpL8GiMejQ,QC,-73.5925189,45.5183785,Cocoa Locale,4.5,Food|Desserts|Specialty Food|Chocolatiers & Shops,49,75083,48,0.000639292516282,3.84375
e5JCSD4LlAmc93PwODwwfg,QC,-73.5804805,45.5173392,Bois Idéal / Rona,3.0,Shopping|Home & Garden,72,6015,44,0.00731504571904,4.01136363636
DkqyorzASxwB1dSPIP6-ig,QC,-73.6486958,45.5439019,Ciot,2.5,Shopping|Kitchen & Bath|Home & Garden|Home Services|Flooring,89,3733,6,0.00160728636485,3.41666666667
xTc-5jMspgLgMq5kcgD_yg,QC,-73.6146713,45.5364653,Poissonnerie Aqua Mare,4.0,Food|Specialty Food|Seafood Markets,88,1355,54,0.039852398524,4.22222222222
ZxTqIKKv9I2emYh1XiaV5Q,QC,-73.6570719,45.5613881,La Petite Boulangerie,4.5,Bakeries|Food,74,986,7,0.00709939148073,4.28571428571
QAZblNzNP2GAX7npxTfLiQ,QC,-73.5752142,45.5322819,Fruits Du Jour,4.0,Food|Specialty Food|Fruits & Veggies,91,24586,36,0.00146424794599,3.98611111111
d_8DZLaxpTdAC5WnBl7xAw,QC,-73.5797897,45.5273937,Intermarche Boyer Mont-Royal,2.0,Food|Grocery,20,158784,56,0.000352680370818,3.86607142857
jFMHweu8PU6bodehqH-Cig,QC,-73.5897409,45.5434442,Clinique Veterinaire Delorimier & Rosemont,5.0,Veterinarians|Pets,68,350,6,0.0171428571429,4.66666666667
RgJqstm9YmwVZ2wOYoWwEw,QC,-73.5765674,45.5235405,Verres Stérilisés,5.0,Nightlife,87,7805,44,0.00563741191544,3.97727272727
7HwQotQBlI4vJcwlP8qDqQ,QC,-73.5662869,45.5200805,Hotel De Paris,2.5,Hotels & Travel|Event Planning & Services|Hotels,64,3428,62,0.0180863477246,3.79032258065
F-ng9mkXy8qF2xqYCxUUYg,QC,-73.5573007,45.5170913,Theatre Olympia,2.5,Arts & Entertainment|Cinema|Event Planning & Services|Venues & Event Spaces,18,345,69,0.2,3.69565217391
udjYDN0FvSs6bNGXb7Ppcw,QC,-73.602111,45.522435,St-Viateur Bagel,4.0,Food|Bagels,94,4757,41,0.00861887744377,4.07317073171
N5P-YRIMCC5Nrj8CEX3vRg,QC,-73.6102626,45.5442284,Johanne Verdon Sante Beaute,4.0,Doctors|Health & Medical|Naturopathic/Holistic,30,3626,14,0.003861003861,3.60714285714
8IPFmSzIhD6RfY4xEoN9EA,QC,-73.573353,45.5342465,Les Co'pains D'abord,4.5,Bakeries|Food,91,24586,36,0.00146424794599,3.98611111111
sbrxL9-Bi1a1iwUZv6LZlw,QC,-73.5645232,45.5157906,Sucre Bleu,3.5,Food|Specialty Food|Candy Stores,64,3428,62,0.0180863477246,3.79032258065
Dl0aiLB55cpQTHKmDISZag,QC,-73.5598467,45.5067397,Holiday Inn Montreal Centreville Downtown,3.0,Hotels & Travel|Event Planning & Services|Venues & Event Spaces|Hotels,47,112753,60,0.000532136617208,3.64166666667
xoW01m1398pfhY21clwhug,QC,-73.5952949,45.5204805,Pâtisserie de Gascogne,4.0,Bakeries|Food,49,75083,48,0.000639292516282,3.84375
AsW25-V4kIkVkAU4AUenRQ,QC,-73.5627304008,45.5149154023,Juliette & Chocolat,4.0,Food|Desserts|Specialty Food|Chocolatiers & Shops,64,3428,62,0.0180863477246,3.79032258065
KO8a4mOvwZH_oTfK2_HOmw,QC,-73.6144042,45.5381407,Marche Thai-Hour,3.5,Food|Grocery,88,1355,54,0.039852398524,4.22222222222
kClmBhnrxUqXQHQ9TOIuaQ,QC,-73.5658108,45.503668,St Patrick's Basilica,5.0,Religious Organizations,53,2454,102,0.041564792176,3.53921568627
iBNQm4Se2nYt1VlSrn214A,QC,-73.6043797,45.5230309,Papeterie Zoubris,4.5,Printing Services|Shopping|Arts & Crafts|Local Services|Event Planning & Services|Office Equipment|Cards & Stationery|Flowers & Gifts,94,4757,41,0.00861887744377,4.07317073171
nMQnLnNit_xq4LVJfiV_7w,QC,-73.5846565,45.51948,Super Marche Sakaris,4.5,Food|Specialty Food|Grocery|Fruits & Veggies,97,507,57,0.112426035503,3.9649122807
NRJLMx33E-OeHwCXL94Qog,QC,-73.5766068,45.5158453,Studio Bliss,4.0,Yoga|Beauty & Spas|Fitness & Instruction|Active Life|Day Spas|Massage,72,6015,44,0.00731504571904,4.01136363636
l0TtnZxfSflGYFInCdCt8w,QC,-73.5631349,45.5149715,Bistro à Jojo,4.0,Bars|Arts & Entertainment|Nightlife|Music Venues,64,3428,62,0.0180863477246,3.79032258065
TScQXPEEItbDPAljMKVYtg,QC,-73.5754543,45.5151824,Freitag-Concept,4.5,Shopping|Jewelry,7,300,73,0.243333333333,3.82191780822
Qr9mHolBK7xlUbNe8CnS1g,QC,-73.5761311,45.5314524,Valmont Montréal,4.0,Food|Grocery|Organic Stores,91,24586,36,0.00146424794599,3.98611111111
GzxoVBWemKK_oFbM8enklw,QC,-73.5623405,45.5042147,Hotel Le Dauphin Montreal Centre-Ville,4.0,Hotels & Travel|Event Planning & Services|Hotels,47,112753,60,0.000532136617208,3.64166666667
iiubAZXtiHbW_ie93JjRNQ,QC,-73.5868809,45.519589,Kif-Kif import,2.5,Arts & Crafts|Shopping|Home & Garden|Antiques|Furniture Stores,97,507,57,0.112426035503,3.9649122807
ubuoosf1Ozie-p-QKdEwaQ,QC,-73.5629217,45.5094846,Societé des arts technologiques,4.0,Arts & Entertainment|Art Galleries|Shopping|Event Planning & Services|Venues & Event Spaces,47,112753,60,0.000532136617208,3.64166666667
IFffK5UJl2B2POSCos9o9g,QC,-73.5788999,45.5166343,Bar Champs,3.0,Bars|Sports Bars|Nightlife,72,6015,44,0.00731504571904,4.01136363636
MrC5eeS84YxKtx6MkyxtKQ,QC,-73.560049,45.510868,Days Inn Montreal Centre-Ville,3.0,Hotels & Travel|Event Planning & Services|Hotels,47,112753,60,0.000532136617208,3.64166666667
N395pu8h3TeYbqe5PCLGEQ,QC,-73.5578284,45.5166367,Circus After Hours,2.5,Nightlife|Dance Clubs,18,345,69,0.2,3.69565217391
7WK4RTmyhbY63s0lKBFnEA,QC,-73.5835375,45.5233141,Boutique Pelfini,4.5,Arts & Crafts|Shopping,20,158784,56,0.000352680370818,3.86607142857
LguCrlJZ63-WZpuriZp5Pg,QC,-73.5702932,45.5130177,Restaurant Globe,3.5,Bars|Nightlife|Lounges,7,300,73,0.243333333333,3.82191780822
KEC7Ip_nNgpz0G3tqExpaQ,QC,-73.574498,45.514768,L'Intermarché 4 Frères,2.5,Food|Grocery,7,300,73,0.243333333333,3.82191780822
37U0FrU4pStMHGsvq3B9qQ,QC,-73.5597852,45.5131991,Hotel St-Denis,4.0,Hotels & Travel|Event Planning & Services|Venues & Event Spaces|Hotels,47,112753,60,0.000532136617208,3.64166666667
-odtOcgPKHqe89XZSVUAwA,QC,-73.574752,45.5202892,Suite 88 Chocolatier,4.0,Food|Specialty Food|Desserts|Chocolatiers & Shops,87,7805,44,0.00563741191544,3.97727272727
gfYSsT4dTMMufyjbsFNPjA,QC,-73.6155938,45.5368551,Italmelodie,4.5,Electronics|Musical Instruments & Teachers|Shopping,88,1355,54,0.039852398524,4.22222222222
Wj40DIDcL_rBBouhb6NXdg,QC,-73.5835667,45.5337241,Le Fromentier,4.5,Bakeries|Food,82,1715,18,0.0104956268222,3.94444444444
AzmubKU1fcxnUlnSkgAxsg,QC,-73.6002105,45.5347098,Le Petit Medley,3.5,Pubs|Bars|Nightlife|Lounges,73,11131,26,0.0023358188842,3.82692307692
LkM6Wb93kuyRZyEcKm_uaA,QC,-73.5634634,45.5151171,Pub l'Île Noire,4.0,Pubs|Bars|Nightlife|Lounges,64,3428,62,0.0180863477246,3.79032258065
qdIkLHhfOHAeuiYApw1miA,QC,-73.5712317,45.5184608,Hotel Kutuma,4.5,Hotels & Travel|Event Planning & Services|Hotels,87,7805,44,0.00563741191544,3.97727272727
Bra_1tYKeF4W8mxdoQzLIA,QC,-73.5617613,45.516644,Hôtel Européenne,3.5,Hotels & Travel|Event Planning & Services|Hotels,64,3428,62,0.0180863477246,3.79032258065
tvmKrU0qwXI7mV6XnefRYg,QC,-73.5570093,45.517714,Campus,3.0,Adult Entertainment|Bars|Gay Bars|Nightlife,18,345,69,0.2,3.69565217391
4Af4jxTcRFvKWqSVBZK4dw,QC,-73.5651637,45.5150298,Pub Quartier Latin,4.0,Pubs|Bars|Nightlife,64,3428,62,0.0180863477246,3.79032258065
fed3-XYwiuK-lbU2sjOCZw,QC,-73.6074427,45.5298702,Galerie D'art Yves Laroche,5.0,Arts & Entertainment|Art Galleries|Shopping,2,4211,22,0.00522441225362,4.11363636364
9WRwOV_FYLG4w0qCxWw9lg,QC,-73.5790562,45.5223357,Mochico,3.5,Fashion|Shopping|Shoe Stores,20,158784,56,0.000352680370818,3.86607142857
BS2Duu7KylIEe1VdmY8vFA,QC,-73.5797517,45.5201057,Spa Betes V I P,4.5,Pet Services|Pets,72,6015,44,0.00731504571904,4.01136363636
4FYJ6pJWYsF0FIhOONUf1g,QC,-73.5711174338,45.5094968408,Benelux,4.0,Pubs|Food|Bars|Breweries|Nightlife,7,300,73,0.243333333333,3.82191780822
om3ZJHszbwlhFskOGPwHSw,QC,-73.5824029,45.5183256,Divan Orange,4.0,Bars|Arts & Entertainment|Nightlife|Music Venues,72,6015,44,0.00731504571904,4.01136363636
D5zcXx5399TxpjHFxa4uaA,QC,-73.5713305,45.5184951,Librairie Michel Fortin,4.5,"Books, Mags, Music & Video|Shopping|Bookstores",87,7805,44,0.00563741191544,3.97727272727
iXzM2bBM4EzCtAlkR0woLQ,QC,-73.5994863,45.5212004,Parc Des Princes (Le),3.5,Bars|Sports Bars|Nightlife,94,4757,41,0.00861887744377,4.07317073171
rWisQFx8i2FZwC55tMXnTg,QC,-73.5896801,45.5217894,Imagine Le Fun,4.5,Fashion|Shopping|Arts & Crafts|Costumes|Accessories|Women's Clothing,97,507,57,0.112426035503,3.9649122807
wdDKtoogHQ9ypnTVcVX6ZQ,QC,-73.5531599,45.5053586,Queue De Castor,3.5,Food|Desserts,62,86251,53,0.000614485629152,3.82075471698
H-q09bPKnXaBW0NGuhb09A,QC,-73.5846415,45.5192078,Athens Barber Shop,5.0,Barbers|Beauty & Spas,97,507,57,0.112426035503,3.9649122807
tuQnF4CaDDd1pLDF51XD6w,QC,-73.6146713,45.5364653,Les Cochons Tout Ronds,5.0,Food|Specialty Food|Meat Shops,88,1355,54,0.039852398524,4.22222222222
vxd3mTAaWfuAN2_F1lZNpg,QC,-73.6146713,45.5364653,Chocolats Privilege,4.5,Food,88,1355,54,0.039852398524,4.22222222222
QQ0AKywLmfPp8fBd8nhHMA,QC,-73.5842335,45.5329636,Crème Glacée Bo-Bec,4.5,Food|Ice Cream & Frozen Yogurt|Desserts,82,1715,18,0.0104956268222,3.94444444444
dXTtIvLU7RbDFVYgyi6BEQ,QC,-73.5720406,45.5354041,Le Verre Bouteille,3.5,Bars|Nightlife,91,24586,36,0.00146424794599,3.98611111111
c3U_-4sA-SWel-BVYXc8jA,QC,-73.559372,45.5014996,Barami,1.0,,0,207,65,0.314009661836,3.95384615385
cNB5VeEwJZ6fwuOpAPoi_A,QC,-73.5573086,45.5055088,Rainspa,4.5,Day Spas|Nail Salons|Massage|Beauty & Spas,0,207,65,0.314009661836,3.95384615385
M6vOVrkUJf2mt6ZG0UZEOA,QC,-73.5807145,45.5263956,Boulangerie Première Moisson Mont-Royal,4.0,Bakeries|Food,20,158784,56,0.000352680370818,3.86607142857
6Tdz7MvJA5eLBAWOV3fW_A,QC,-73.5776041,45.5111821,Brasserie Des Pins,3.5,Nightlife,7,300,73,0.243333333333,3.82191780822
FPI6VAam1QMmwkPjz6vvxg,QC,-73.562577,45.5148463,Hotel Le Relais Lyonnaise,5.0,Hotels & Travel|Event Planning & Services|Hotels,64,3428,62,0.0180863477246,3.79032258065
FE201gQQTaO47K3Njo6qqA,QC,-73.5531085,45.508091,Ben & Jerry's,3.5,Food|Ice Cream & Frozen Yogurt,62,86251,53,0.000614485629152,3.82075471698
CQfhRg48QRPWldVXPXeIQA,QC,-73.5612410712,45.516441908,Montreal Central,4.5,Hotels & Travel|Hostels|Event Planning & Services|Hotels,64,3428,62,0.0180863477246,3.79032258065
iG5AOfpR0-e3-bdZLpKDMg,QC,-73.6001091,45.5101473,Mount Royal Cemetery,5.0,Local Services|Funeral Services & Cemeteries,49,75083,48,0.000639292516282,3.84375
0AGsxMB73K_yCKnfMbk6BA,QC,-73.5787319,45.5175782,Tami Beauté Des Ongles,3.5,Beauty & Spas|Nail Salons,72,6015,44,0.00731504571904,4.01136363636
uQOBg3NRyrC767zEr1LIgQ,QC,-73.5606176,45.5028747,InterContinental Montreal,4.0,Hotels & Travel|Event Planning & Services|Venues & Event Spaces|Hotels,0,207,65,0.314009661836,3.95384615385
o1Aw1wMp038FOli7qSGCmQ,QC,-73.5728688,45.5141734,Aveda Montreal Lifestyle Salon Spa & Academy,4.0,Hair Salons|Day Spas|Beauty & Spas,7,300,73,0.243333333333,3.82191780822
DIPsqt8b5HdfhjnfJERpuA,QC,-73.6064018,45.5293254,Canadian Tire Magasins Associes,2.5,,2,4211,22,0.00522441225362,4.11363636364
RETpHWNvzBckroIFH7F3jQ,QC,-73.5776281357,45.5295685872,La Soupière,4.0,Kitchen & Bath|Shopping|Home & Garden,91,24586,36,0.00146424794599,3.98611111111
ewbC_cJYV158EtCyokaYzQ,QC,-73.562565,45.511582,Henri Henri Ltee,4.5,Men's Clothing|Hats|Fashion|Shopping|Accessories,47,112753,60,0.000532136617208,3.64166666667
ZOSpO_l3HNI1Tx9URtwtiA,QC,-73.5794798,45.5279569,Brasserie Chez Baptiste,3.0,Bars|Nightlife,20,158784,56,0.000352680370818,3.86607142857
tydGKeW_59_X9U9_ZjVVrQ,QC,-73.5811075,45.5230085,Renaud Bray Saint-Denis,3.0,"Libraries|Books, Mags, Music & Video|Shopping|Public Services & Government|Bookstores",20,158784,56,0.000352680370818,3.86607142857
VaSJLEck3ckpO1JrVSsAgw,QC,-73.5807228,45.5264339,Chez Farfelu,4.0,Arts & Crafts|Shopping|Toy Stores,20,158784,56,0.000352680370818,3.86607142857
4tyWjdqY-g4NwTEW3xqeig,QC,-73.5952772,45.5229082,Fairmount Bagel,4.0,Food|Bagels,49,75083,48,0.000639292516282,3.84375
jBoJrrdIn6yhZ_xLdNwI3Q,QC,-73.605572,45.5629278,Marché aux Puces St-Michel,4.5,Flea Markets|Shopping,41,7908,8,0.00101163378857,4.3125
cLFKFo02xkxvPszpj4_IAg,QC,-73.5747575,45.5202503,Arthur Quentin,4.0,Kitchen & Bath|Shopping|Home & Garden,87,7805,44,0.00563741191544,3.97727272727
-_dUKWjUsg1CpjGKL7yf4Q,QC,-73.6146713,45.5364653,Épices de Cru,5.0,Food|Specialty Food|Fruits & Veggies|Herbs & Spices,88,1355,54,0.039852398524,4.22222222222
qWbX0EYvsxh3nG3G0OYSUg,QC,-73.5633198,45.5097848,Club Soda,3.5,Nightlife|Dance Clubs,47,112753,60,0.000532136617208,3.64166666667
IfOO5jX0C0n30UMISOYgSQ,QC,-73.6060532,45.5331381,Bruno Sport Bar,5.0,Bars|Sports Bars|Nightlife,2,4211,22,0.00522441225362,4.11363636364
GXChfQV3sWq9nEE9I6PMFA,QC,-73.5822318,45.5235157,Boutique Courir Montreal,4.0,Bikes|Sporting Goods|Fashion|Shopping|Sports Wear,20,158784,56,0.000352680370818,3.86607142857
jti1XmkPa11lKKGC7XrjRA,QC,-73.5634318,45.5104935,Hotel Villa,2.5,Hotels & Travel|Event Planning & Services|Hotels,47,112753,60,0.000532136617208,3.64166666667
iELz6hVe6TRQA53VoYZAWg,QC,-73.5753702,45.5248896,Les Pas Sages,3.5,Bars|Nightlife,87,7805,44,0.00563741191544,3.97727272727
_bSqKmqRT_yKR1F0Nvhn_g,QC,-73.593295,45.5469363,Bar Chez Roger,4.5,Nightlife,68,350,6,0.0171428571429,4.66666666667
OyoCiLUYzbrtVw_X4tOJLg,QC,-73.589687,45.5215058,Rachelle-Bery,3.5,Food|Organic Stores,97,507,57,0.112426035503,3.9649122807
tt1qejxPo8RVeA5shSsnew,QC,-73.5717103,45.5085248,Papeterie Nota Bene,4.5,Cards & Stationery|Arts & Crafts|Flowers & Gifts|Shopping|Event Planning & Services,53,2454,102,0.041564792176,3.53921568627
ZdchWPFz6xq0sb0D33RzQw,QC,-73.5801434,45.526798,Animalerie Paul,2.5,Pets|Pet Stores,20,158784,56,0.000352680370818,3.86607142857
nXw5uL5_afxZ33ZFB4U0AQ,QC,-73.6156086,45.5333477,Saq,4.0,"Food|Beer, Wine & Spirits",88,1355,54,0.039852398524,4.22222222222
7LGPVboUybgCY8maWQsc-g,QC,-73.5679656,45.5399043,Journal De Montréal,3.5,"Newspapers & Magazines|Print Media|Shopping|Mass Media|Books, Mags, Music & Video",4,2941,12,0.00408024481469,4.08333333333
0Z3dCshAfz2GvRwUVkMOSQ,QC,-73.5535851,45.5048366,Saute-Moutons Jet Boating Montréal,5.0,Boat Charters|Boating|Tours|Event Planning & Services|Active Life|Hotels & Travel,62,86251,53,0.000614485629152,3.82075471698
zG_TxNoWYoTYJAdQ1pjO0g,QC,-73.5767496,45.5156687,Moog Audio,2.5,"Music & DVDs|Books, Mags, Music & Video|Electronics|Musical Instruments & Teachers|Shopping",72,6015,44,0.00731504571904,4.01136363636
aBBe62zQBeLjFmBS6NX9Ow,QC,-73.5567843,45.5173227,Parking,4.0,Nightlife|Dance Clubs,18,345,69,0.2,3.69565217391
7GNCm1Nl2NOBu31bjkOhcQ,QC,-73.5639579,45.5154735,Le Saint-Ciboire,3.0,Nightlife,64,3428,62,0.0180863477246,3.79032258065
O6-apf_yNkWU7NTQAKa19w,QC,-73.5867405,45.5197361,Club De Muay Thai Daosawan,4.5,Active Life|Martial Arts|Specialty Schools|Education|Fitness & Instruction,97,507,57,0.112426035503,3.9649122807
qSMh_zT35afsQHwVX0dhbg,QC,-73.6202788,45.5357875,Kardiologik,2.5,Active Life|Trainers|Fitness & Instruction,25,1488,15,0.0100806451613,3.86666666667
TveZGK-lNHKRj2dDv7UX2g,QC,-73.5704271876,45.4740342819,Vova Patisserie,4.5,Bakeries|Food,13,1791,41,0.0228922389726,4.08536585366
UVrOL4AzIhRtINkE7NWu0w,QC,-73.552091,45.522654,Bar Le Stud,3.5,Bars|Gay Bars|Nightlife,18,345,69,0.2,3.69565217391
5WtDMaiqDn9WXEpvQ2ZTLA,QC,-73.5986034,45.5205292,Supermarché PA,4.0,Food|Grocery,49,75083,48,0.000639292516282,3.84375
yxgG3R0wouFYH9qvY2Ad7w,QC,-73.566097,45.516104,Montreal Espace Confort,5.0,Hotels & Travel|Event Planning & Services|Hotels,64,3428,62,0.0180863477246,3.79032258065
lVHpz1AWuEOMIaLGq6e9MQ,QC,-73.5542684,45.5133452,Accomodation Viger Hotel,3.0,Hotels & Travel|Event Planning & Services|Hotels,62,86251,53,0.000614485629152,3.82075471698
2tYi9sxtHGiw0WRIfgqtnA,QC,-73.5641232,45.5096949,Abri Du Voyageur Hôtel,4.0,Hotels & Travel|Event Planning & Services|Hotels,47,112753,60,0.000532136617208,3.64166666667
9ftEOPNM0Fth8CHWmUcd2w,QC,-73.5800543,45.5171488,Boutique Lustre,4.0,Women's Clothing|Fashion|Shopping,72,6015,44,0.00731504571904,4.01136363636
6lTR9DQzYfuMT_088w0mxw,QC,-73.6028048,45.5358641,Délires du Terroir,4.5,"Food|Beer, Wine & Spirits|Local Flavor",73,11131,26,0.0023358188842,3.82692307692
WUZqvnSTbv-oFvAcXkDWcA,QC,-73.571922,45.5086594,Provigo,2.5,Food|Grocery,53,2454,102,0.041564792176,3.53921568627
zJxm1QC9iuzf8ZhKKokXww,QC,-73.5830354,45.5238337,La Boîte Noire,4.0,"Videos & Video Game Rental|Books, Mags, Music & Video|Shopping|Music & DVDs",20,158784,56,0.000352680370818,3.86607142857
Sx96d65M32CG6rNX5LHWcQ,QC,-73.5747849,45.5219507,L'Oiseau Tonnerre,5.0,Fashion|Shopping|Shoe Stores,87,7805,44,0.00563741191544,3.97727272727
74x28mpmt1ofnKArMRwQDw,QC,-73.608901,45.5205045,Yannick Fromagerie d'Exception,4.5,Food|Cheese Shops|Specialty Food,85,18163,13,0.000715740791719,4.23076923077
hwWt52jpwLKo6M2Ek8Zo1w,QC,-73.5555118,45.5022998,Boutique Reborn,4.5,Women's Clothing|Men's Clothing|Fashion|Shopping,0,207,65,0.314009661836,3.95384615385
uJtLfYj2yz5C-6YgQPHJYg,QC,-73.5766292,45.5158473,Charcuterie Hongroise,4.0,Food|Specialty Food,72,6015,44,0.00731504571904,4.01136363636
G--8AHEI7dwQlE2QOsUHbA,QC,-73.6117677,45.5369285,Pharmaprix,3.5,Shopping|Drugstores,88,1355,54,0.039852398524,4.22222222222
g2Z0KJTP67LkcY0E2nWHbw,QC,-73.551497,45.5092679,Boutique des Métiers d'art du Québec,4.0,Arts & Crafts|Arts & Entertainment|Art Galleries|Shopping,62,86251,53,0.000614485629152,3.82075471698
wnoqwKskaLgwRZSce3NgRA,QC,-73.5781026,45.5087182,Porte Jaune / Yellow Door,4.5,Local Services|Community Service/Non-Profit,7,300,73,0.243333333333,3.82191780822
C7WCtsJnZNZDi88VP8swXA,QC,-73.6063637,45.5375695,Josie Bridal Shop,3.5,Bridal|Shopping,73,11131,26,0.0023358188842,3.82692307692
gsbhWIEfdq8jdtmUFU1E2A,QC,-73.5789816,45.5166685,Blue Dog,4.0,Bars|Nightlife|Dance Clubs|Comedy Clubs,72,6015,44,0.00731504571904,4.01136363636
1DVQYbyMqmJzrp7N76bZQA,QC,-73.6161344,45.5402086,Taxi Diamond,2.0,Hotels & Travel|Taxis|Transportation,30,3626,14,0.003861003861,3.60714285714
sXi4h612cMeBDEorQM5a-w,QC,-73.5738232,45.4992976,Club Unity Montreal,4.0,Music Venues|Arts & Entertainment|Nightlife|Dance Clubs,83,3689,111,0.0300894551369,3.62612612613
pSASlolrVjdGzPpirqN57A,QC,-73.5508496668,45.5180927537,Radio-Canada,3.5,Mass Media|Television Stations|Radio Stations,18,345,69,0.2,3.69565217391
rAt2pUR0vgx6ZO7uNbd-4g,QC,-73.5742003,45.5332969,La Porte Rouge,4.5,Bars|Dance Clubs|Nightlife|Lounges,91,24586,36,0.00146424794599,3.98611111111
HbvPsJHhPeKETxESO5JlmA,QC,-73.5662231,45.5197335,Hotel La Residence Du Voyageur,3.0,Hotels & Travel|Event Planning & Services|Hotels,64,3428,62,0.0180863477246,3.79032258065
TjUv5_gMuunKIi25qjeQfg,QC,-73.5869335,45.5195301,Provigo,3.0,Food|Grocery,97,507,57,0.112426035503,3.9649122807
vVkUX20mPDNG0CKD0l-pRA,QC,-73.5778235,45.5161483,Ripples,4.5,Food|Ice Cream & Frozen Yogurt,72,6015,44,0.00731504571904,4.01136363636
gzNHLU7fLU_tHEMyAfbw4g,QC,-73.5564581,45.5034975,Centaur Theatre Company,3.5,Arts & Entertainment|Performing Arts,0,207,65,0.314009661836,3.95384615385
eAsD6MEwB3lx5ANxEydzVg,QC,-73.5773623,45.5214234,Ambrosia Santé,5.0,Massage|Beauty & Spas,87,7805,44,0.00563741191544,3.97727272727
lhFzBcm5AseL2Y-72xisow,QC,-73.6006432,45.5237489,Chocolats Genevieve Grandbois,4.0,Food|Desserts|Specialty Food|Chocolatiers & Shops,94,4757,41,0.00861887744377,4.07317073171
uFN0irJ2goKBr8IITzcTOQ,QC,-73.6551135,45.5455445,Bo Bebe,3.0,Children's Clothing|Fashion|Shopping|Home & Garden|Baby Gear & Furniture|Furniture Stores,12,16746,6,0.000358294518094,3.66666666667
4LMT9HotLWevmAQ8xgc4VQ,QC,-73.5724713,45.5275158,Hotel Auberge De La Fontaine,4.0,Hotels & Travel|Event Planning & Services|Hotels,91,24586,36,0.00146424794599,3.98611111111
x5HfaGqrQQbDHZnXRCOYIw,QC,-73.565612,45.51582,Hotel Du Manoir St-Denis,2.5,Hotels & Travel|Event Planning & Services|Hotels,64,3428,62,0.0180863477246,3.79032258065
vfrSBZfmejxUJxtFIHHucA,QC,-73.5757006,45.5317254,Edgar Hypertaverne,4.5,Bars|Nightlife|Lounges,91,24586,36,0.00146424794599,3.98611111111
YtgAM-T9aWkvYIrxMZ4eEg,QC,-73.5609688,45.50386,Le Mondial De La Biere,4.0,"Food|Beer, Wine & Spirits|Arts & Entertainment|Festivals",0,207,65,0.314009661836,3.95384615385
oGL4U5qSo-kKOjkYgg9R_A,QC,-73.5556114,45.5188868,Tim Hortons,2.5,Food,18,345,69,0.2,3.69565217391
1CwXFsfCrjuZasn400WePg,QC,-73.5945145,45.5236662,Le Yeti Boutique Plein Air,4.0,Fashion|Shopping|Sporting Goods|Bikes|Outdoor Gear|Sports Wear,49,75083,48,0.000639292516282,3.84375
Tl4hV3aNdo0zfM_hnwtEHw,QC,-73.5729894,45.5133844,Duo,4.5,Shopping,7,300,73,0.243333333333,3.82191780822
9zkbl4jcoN4feQmD-WTNqA,QC,-73.5751,45.5150375,SAQ,4.0,"Food|Beer, Wine & Spirits",7,300,73,0.243333333333,3.82191780822
Zji23G3k6hOAli8Fn_j5Dw,QC,-73.5774629,45.5299255,Folie En Vrac,4.0,Food|Specialty Food|Grocery,91,24586,36,0.00146424794599,3.98611111111
FgnAX8FLuuKVnPX4jVoeTg,QC,-73.5527946,45.5063931,Auberge Du Vieux Port,4.5,Hotels & Travel|Event Planning & Services|Hotels,62,86251,53,0.000614485629152,3.82075471698
Hk0xK8BIukIi5MY0Jrznpw,QC,-73.5618488,45.5123174,Underworld Skateboard,3.0,Sporting Goods|Shopping,47,112753,60,0.000532136617208,3.64166666667
YDWwGEFrk7eU2Bk_ZGRO8Q,QC,-73.5771377,45.5162525,Moksha Yoga Montreal,4.0,Active Life|Yoga|Fitness & Instruction,72,6015,44,0.00731504571904,4.01136363636
T6QUHSCPwogpY3ZE5jLZsQ,QC,-73.5761768,45.5207298,Le Spot St-Denis,3.5,Flowers & Gifts|Shopping|Florists,87,7805,44,0.00563741191544,3.97727272727
lHaoMv5oUM26yiJcKBrWIQ,QC,-73.5724082,45.5087292,Quality Hotel Downtown Montreal,3.5,Hotels & Travel|Event Planning & Services|Hotels,7,300,73,0.243333333333,3.82191780822
_Rllwdj-Hc7IF_49rzrdSQ,QC,-73.5605627,45.5072742,L2 Lounge,4.0,Food|Tea Rooms|Juice Bars & Smoothies,47,112753,60,0.000532136617208,3.64166666667
ayIDbpF0KHlJG9xYFj072g,QC,-73.5805651,45.5266051,Chaussures Aldo,3.0,Fashion|Shopping|Shoe Stores,20,158784,56,0.000352680370818,3.86607142857
pc5V5uOIzinaGI3qPsdy5w,QC,-73.5530508,45.5065664,2 Pierrots,4.0,Bars|Arts & Entertainment|Nightlife|Music Venues,62,86251,53,0.000614485629152,3.82075471698
HxNa4w45JLXyH4Em0Y0j4A,QC,-73.6146713,45.5364653,La Dépense,4.5,Food|Ethnic Food|Specialty Food,88,1355,54,0.039852398524,4.22222222222
6taCN4XZrPDRCLUeZKYJlg,QC,-73.5684066,45.5121951,Festival Just For Laughs,4.0,Festivals|Arts & Entertainment|Nightlife|Comedy Clubs,64,3428,62,0.0180863477246,3.79032258065
_Rxjf-163Y04BJQX1pCb5A,QC,-73.5739726,45.5096981,Marche Lobo,3.5,Food|Grocery,7,300,73,0.243333333333,3.82191780822
s3zJLxImv8T7HXzFys82WA,QC,-73.5758729,45.5282806,Boulangerie Mr Pinchot,3.5,Bakeries|Food,91,24586,36,0.00146424794599,3.98611111111
hxJOXU-3A53cFwSlW1lbfw,QC,-73.5594953,45.5170521,Yer'Mad Bistro Bar,4.5,Nightlife,18,345,69,0.2,3.69565217391
fOjEStlRr8dxfQQ2PFopRA,QC,-73.5841969,45.519262,Héritage,4.0,"Women's Clothing|Used, Vintage & Consignment|Fashion|Shopping|Men's Clothing",97,507,57,0.112426035503,3.9649122807
8wbf_iBrZ0hMyIUD2AjMcQ,QC,-73.611725,45.5352602,Patisserie Alati-Caserta,4.5,Bakeries|Food,88,1355,54,0.039852398524,4.22222222222
mPnTuXjCqYpzPzchK6PVAg,QC,-73.5820634,45.523384,Boutique Dunia,4.5,Arts & Crafts|Shopping,20,158784,56,0.000352680370818,3.86607142857
IQx8r3wiy7ihL8Qumy1qVA,QC,-73.5542914,45.5048837,Bateau-Mouche Au Vieux Port De Montreal (Le),4.0,Boat Charters|Boating|Tours|Event Planning & Services|Active Life|Hotels & Travel,0,207,65,0.314009661836,3.95384615385
q5I03gigBZEi3FukKBNGVw,QC,-73.5746413,45.5328331,Gym Du Plateau,3.0,Active Life|Gyms|Trainers|Fitness & Instruction,91,24586,36,0.00146424794599,3.98611111111
RmUhhMduULf1TCDHoOxeDw,QC,-73.5835903,45.5232531,Bar Plan B,3.5,Nightlife,20,158784,56,0.000352680370818,3.86607142857
jKMLbWIc2pCO0pubKV9Fkw,QC,-73.5569761,45.5178024,Cabaret Mado,4.0,Nightlife,18,345,69,0.2,3.69565217391
qRjLytbZBYTuqyfNPViuAg,QC,-73.5624855,45.517213,Hotel Elegant,2.0,Hotels & Travel|Event Planning & Services|Hotels,64,3428,62,0.0180863477246,3.79032258065
FlQLbkXsBerE2sA4uUoUHA,QC,-73.6003589,45.5350073,Lozeau,3.0,Shopping|Photography Stores & Services,73,11131,26,0.0023358188842,3.82692307692
lPntqxsnjfSkdUwboKCT3w,QC,-73.5817141,45.5232966,Le Valet d'Coeur,4.5,Hobby Shops|Shopping|Toy Stores,20,158784,56,0.000352680370818,3.86607142857
QQz_NrM7bcrcyPDMw7Fgpw,QC,-73.5601884,45.5223925,Usine C,4.5,Arts & Entertainment|Performing Arts,18,345,69,0.2,3.69565217391
n8GZKRXz5bpMsqX3iftr5A,QC,-73.6161048,45.5363037,La Fromagerie Hamel,4.5,Food|Cheese Shops|Specialty Food,88,1355,54,0.039852398524,4.22222222222
21rt1_nfI-UwbvjWrTccyw,QC,-73.6096181,45.5450915,Cafe Terrasse Montebello,2.5,,30,3626,14,0.003861003861,3.60714285714
sFrZCDCFMEOVHbKODGM3tA,QC,-73.5719124,45.5357465,Fruiterie Val-Mont,3.5,Food|Specialty Food|Fruits & Veggies,91,24586,36,0.00146424794599,3.98611111111
bZ2Txt7X_OLHn9wvCESNgw,QC,-73.6074006,45.5369439,L'express St Zotique,4.5,Food|Convenience Stores,73,11131,26,0.0023358188842,3.82692307692
UFzmpJXDz_JIiLmFqjdlyQ,QC,-73.6248745485,45.548716201,Iga Supermarche Deziel,3.5,Food|Specialty Food|Grocery|Fruits & Veggies,30,3626,14,0.003861003861,3.60714285714
h760jYGvSP1OlKsFM7hHJw,QC,-73.5617862993,45.5081722711,Hotel Travelodge Montreal Centre,2.0,Hotels & Travel|Event Planning & Services|Hotels,47,112753,60,0.000532136617208,3.64166666667
MNUkvxct9SijMTnNgFkRyA,QC,-73.6103832,45.5393554,Fripe-Prix Renaissance,4.5,"Used, Vintage & Consignment|Fashion|Shopping",30,3626,14,0.003861003861,3.60714285714
tRrUvDSQGSq2swUyw_qozw,QC,-73.5791120306,45.49657718,UQAM - Université du Québec à Montréal,4.0,Colleges & Universities|Education,17,940,63,0.0670212765957,3.80952380952
uEH058fjZVvnEsH8Rt393w,QC,-73.6084974,45.53878,Plaza St-Hubert,3.0,Shopping Centers|Shopping,30,3626,14,0.003861003861,3.60714285714
X-PvxnLhKDglJvnzg6cf9Q,QC,-73.5801717,45.5227256,Aux Deux Marie,3.5,Food,20,158784,56,0.000352680370818,3.86607142857
i381TLhzlhilOuX0jE4-Og,QC,-73.5739894,45.519933,Rout'art,5.0,Arts & Crafts|Shopping,87,7805,44,0.00563741191544,3.97727272727
1hhtpioS9xfwhhHHr_D2UA,QC,-73.5788385,45.516902,Theatre Mainline,3.5,Arts & Entertainment|Performing Arts,72,6015,44,0.00731504571904,4.01136363636
6rCvH7J63sDR3FqvA0kR-A,QC,-73.5772536,45.530137,Delices Bio (Les),4.5,Specialty Food|Shopping|Health Markets|Caterers|Food|Event Planning & Services|Bridal,91,24586,36,0.00146424794599,3.98611111111
WEqWFvyOqjpHvlld118vFA,QC,-73.6579881,45.5598649,Tornade Academie De Coiffure,3.5,Hair Salons|Cosmetology Schools|Specialty Schools|Education|Beauty & Spas,74,986,7,0.00709939148073,4.28571428571
VA_vQ6aA0WmXY-bUbYXbuw,QC,-73.5812739,45.5184621,Mycoboutique,5.0,Food|Grocery,72,6015,44,0.00731504571904,4.01136363636
vjT4_INLrGNE-2xDhI2-zg,QC,-73.5573184,45.5138354,Hotel Le Roberval,3.0,Hotels & Travel|Event Planning & Services|Hotels,18,345,69,0.2,3.69565217391
4X9D6Bs_QUoGi6VytvjPtQ,QC,-73.576419,45.5239419,Chasse Toyota,2.0,Automotive|Car Dealers,87,7805,44,0.00563741191544,3.97727272727
Pm3cf6E28d7r3PV8iaM9qg,QC,-73.5847584,45.5283401,Cordonnerie Jiji,2.5,Local Services|Shoe Repair,82,1715,18,0.0104956268222,3.94444444444
-qz5hDtrVG9XQduTyleUNQ,QC,-73.5594479,45.5079024,L'expression De La Vie,4.0,Arts & Crafts|Shopping|Hobby Shops,47,112753,60,0.000532136617208,3.64166666667
uPLznrmeSapuV0o6k9b9WQ,QC,-73.582461,45.5344554,Maison Cakao (La),4.5,Food,82,1715,18,0.0104956268222,3.94444444444
kCW1Ggsqje_oBq-Apc4ciQ,QC,-73.5590771,45.5050553,Palais des congrès de Montréal,4.0,Event Planning & Services|Venues & Event Spaces,0,207,65,0.314009661836,3.95384615385
yBjdDgNrrHmv6amNfjIZHg,QC,-73.5665485791,45.5184717866,Hotel Chateau De L'argoat,4.5,Hotels & Travel|Event Planning & Services|Hotels,64,3428,62,0.0180863477246,3.79032258065
VMcImxyIFZ35Chetz1blPg,QC,-73.5975748,45.5596821,Bar Zoe Karaoke Et Cocktails,4.5,Karaoke|Nightlife,41,7908,8,0.00101163378857,4.3125
-fkQt9YhNp_t2VKPh2Ra7w,QC,-73.5963037,45.5189446,Lise Watier Institut De Beaute,1.0,Hair Salons|Beauty & Spas|Blow Dry/Out Services,49,75083,48,0.000639292516282,3.84375
WRCFOpSEvC8VyhR0lEoz7g,QC,-73.6173563,45.538804,Chocobel,5.0,Food|Specialty Food|Chocolatiers & Shops,88,1355,54,0.039852398524,4.22222222222
Ea9N3E-s0gsK7EPVvrrv_A,QC,-73.5601812,45.5135371,Aria Nightclub,4.5,Nightlife|Dance Clubs,47,112753,60,0.000532136617208,3.64166666667
ovFo-aOUf-tJLkRN3GCjgg,QC,-73.5869271,45.5204551,Les aliments Picado,4.5,Food|Grocery,97,507,57,0.112426035503,3.9649122807
F854tfFa6OqgTxFaBnM2sQ,QC,-73.5528632,45.5117101,Hotel Champ De Mars,3.0,Hotels & Travel|Event Planning & Services|Hotels,62,86251,53,0.000614485629152,3.82075471698
ouYqM15kdEvZruUJA0UZeQ,QC,-73.580312,45.5173881,Patisserie De Notre Maison,4.0,Bakeries|Food,72,6015,44,0.00731504571904,4.01136363636
1BIt6jRwcnrrgGG-FTnPVg,QC,-73.5579597,45.5150327,Bistro Au Vieux St-Hubert,3.0,Pubs|Bars|Nightlife,18,345,69,0.2,3.69565217391
sa6yW9ic2Q_ujBx7WF-nwg,QC,-73.566058,45.5162721,Librairie Mona Lisait,4.0,"Books, Mags, Music & Video|Shopping|Bookstores",64,3428,62,0.0180863477246,3.79032258065
ODQDz1obRmLcbwLUa78yGA,QC,-73.6157189,45.5194417,Le Paltoquet,4.5,Bakeries|Food|Event Planning & Services|Caterers,85,18163,13,0.000715740791719,4.23076923077
RLw7ZODatnHDkf_MIHxSEg,QC,-73.5606737,45.5131651,DeSerres,4.5,Art Supplies|Shopping|Arts & Crafts,47,112753,60,0.000532136617208,3.64166666667
XALxEFyFcmvqRBatnLDMlQ,QC,-73.576182,45.5209255,Lush,4.0,Shopping|Cosmetics & Beauty Supply|Beauty & Spas,87,7805,44,0.00563741191544,3.97727272727
nvIAR-a_39UF05eYHvoGOQ,QC,-73.6045964,45.524768,Librairie Drawn & Quarterly,4.5,"Books, Mags, Music & Video|Shopping|Bookstores",94,4757,41,0.00861887744377,4.07317073171
w4n5Pti_YlfZPGML78XSkA,QC,-73.5742955,45.5226376,Taverne Inspecteur Épingle,4.0,Dive Bars|Arts & Entertainment|Bars|Nightlife|Music Venues,87,7805,44,0.00563741191544,3.97727272727
WUQHnHBzMHiBO_OiggckfQ,QC,-73.5802251,45.5170247,Preloved,4.5,Women's Clothing|Arts & Crafts|Fashion|Shopping|Men's Clothing,72,6015,44,0.00731504571904,4.01136363636
gw9OuI2fT6cxVCoWy1KKkA,QC,-73.5578883,45.5146051,Hotel Les Suites Labelle,3.0,Hotels & Travel|Event Planning & Services|Hotels,18,345,69,0.2,3.69565217391
jCLQCkmlgvE_grWnWARQqw,QC,-73.6022372,45.5357544,Pâtisserie Les Petits Plaisirs,3.5,Bakeries|Food,73,11131,26,0.0023358188842,3.82692307692
ar2c37D_TkOKCUc7syn75g,QC,-73.5546234,45.5201405,Le Drugstore,3.0,Bars|Gay Bars|Nightlife|Dance Clubs,18,345,69,0.2,3.69565217391
y8BFqKhZUQgSCf8W7YaRfQ,QC,-73.5853204,45.5208712,Sound Central,5.0,"Books, Mags, Music & Video|Vinyl Records|Shopping",97,507,57,0.112426035503,3.9649122807
BzwymEetmsMQf9TBrSgqeg,QC,-73.579678,45.5224999,El Zaz Bar,3.0,Nightlife,20,158784,56,0.000352680370818,3.86607142857
1Lt_ZeJPZOINqLmW-muCgw,QC,-73.553884,45.503929,Auberge De La Place Royale,5.0,Hotels & Travel|Event Planning & Services|Hotels,0,207,65,0.314009661836,3.95384615385
hY3HKIpJlZj31IyXzWGnuw,QC,-73.5560064,45.5010816,Auberge Alternative (De Jeunesse) Du Vieux-Montreal,4.5,Hotels & Travel|Hostels,0,207,65,0.314009661836,3.95384615385
_rvqIl0UFqbEhzeU-NlYzQ,QC,-73.551887,45.5225019,Mohawk Barbier Etc.,4.5,Barbers|Beauty & Spas,18,345,69,0.2,3.69565217391
LAFkodgouo8N33g82qYnBQ,QC,-73.5540592,45.5025678,Pointe-à-Callière - Musée d'archéologie et d'histoire,4.0,Museums|Arts & Entertainment,0,207,65,0.314009661836,3.95384615385
HZ5POWmZdC4oRTKCdLlfeg,QC,-73.5596185,45.5187579,Loggia (La),4.5,Hotels & Travel|Bed & Breakfast|Event Planning & Services|Hotels,18,345,69,0.2,3.69565217391
hQUN50k5jdvO9tTMsFmA7A,QC,-73.5635857,45.5146544,Camellia Sinensis,4.5,Food|Tea Rooms,64,3428,62,0.0180863477246,3.79032258065
_r5Th3KbGvOyYXH5veVPWw,QC,-73.6142806,45.5212242,Friperie Morgane,3.5,"Used, Vintage & Consignment|Fashion|Shopping",85,18163,13,0.000715740791719,4.23076923077
jElu-omRkSo23tuRnn9kqg,QC,-73.5682803,45.5188814,Patisserie St Louis De France,4.5,Bakeries|Food,64,3428,62,0.0180863477246,3.79032258065
qkfDT_aZMDESHmMTM0b1Pw,QC,-73.5731043,45.5322608,Centre De Mecanique Et Pneu Papineau,2.5,Auto Repair|Automotive|Tires,91,24586,36,0.00146424794599,3.98611111111
-ejhUkPSBQKkEwxnnTzAJA,QC,-73.5546196,45.5136461,La Conciergerie Guest House,4.0,Hotels & Travel|Event Planning & Services|Hotels,62,86251,53,0.000614485629152,3.82075471698
8NSbkZ_gmk1UDFtpvo_LVg,QC,-73.5866855,45.5199505,Tim Hortons,2.0,Food,97,507,57,0.112426035503,3.9649122807
flYvcbsLvI5CoL9iFgPInw,QC,-73.5496479,45.5214004,Poissonnerie La Mer,4.5,Food|Specialty Food|Seafood Markets,18,345,69,0.2,3.69565217391
YtYaARZ-aBkhOWPySeh4vg,QC,-73.5873149,45.5191282,Curio-Cité,4.0,Shopping|Home Decor|Home & Garden,97,507,57,0.112426035503,3.9649122807
__1LvuqE0cwxiTWDbNrfug,QC,-73.6014751,45.5355211,Belle et Rebelle,3.0,Women's Clothing|Fashion|Shopping,73,11131,26,0.0023358188842,3.82692307692
CaklTsDhqb2H78Dr9HC66Q,QC,-73.6139822,45.5381003,Marche Oriental St-Denis,3.5,Food|Grocery,88,1355,54,0.039852398524,4.22222222222
JSV0pc9lQm3SUYIbzDgLsQ,QC,-73.5868283,45.5458177,Le Rosemont,4.5,Bars|Nightlife,68,350,6,0.0171428571429,4.66666666667
7UK_3CTXVlbkqTGCJKUZdg,QC,-73.5580555,45.5178987,Couscoussiere D'ali Baba,3.0,,18,345,69,0.2,3.69565217391
CEzk3g0Hg4zOx-CvZjEImQ,QC,-73.5781202,45.5163771,Korova Bar Terroir,4.0,Dive Bars|Bars|Nightlife|Dance Clubs,72,6015,44,0.00731504571904,4.01136363636
b8JYtyrK_Gg47cGz0DV4Lw,QC,-73.5546575,45.5202886,La Mie Matinale,4.0,Bakeries|Food,18,345,69,0.2,3.69565217391
MA0czhKN4y3W5huLd6unIg,QC,-73.5835215,45.5232245,Au Kouign-Amann,4.5,Bakeries|Food,20,158784,56,0.000352680370818,3.86607142857
-H-0LbDYItbrUOYXpgTSRA,QC,-73.5621702,45.5170701,Hotel 7 Saisons,3.5,Hotels & Travel|Event Planning & Services|Hotels,64,3428,62,0.0180863477246,3.79032258065
30F69ceXK_gkj3uzq7-dQQ,QC,-73.5723717,45.5142212,Vol de nuit,3.5,Nightlife,7,300,73,0.243333333333,3.82191780822
KuG2p5cSMEioNdba9EBHNA,QC,-73.5892484,45.5212972,Espace Nomad,4.0,Day Spas|Massage|Beauty & Spas,97,507,57,0.112426035503,3.9649122807
AXqImwaJ6PQ2LvCWPDYh0A,QC,-73.5742065,45.5145105,Salon Funky Toque,4.5,Hair Salons|Beauty & Spas,7,300,73,0.243333333333,3.82191780822
N45BoYw_TxxtQjtmdPVP3w,QC,-73.5530973,45.508753,Château Ramezay Museum,3.5,Museums|Arts & Entertainment,62,86251,53,0.000614485629152,3.82075471698
NBCCmxzv4kYMBhZ6SD0bbA,QC,-73.6085919,45.5302717,Marché G. Lalime,4.0,Food|Grocery|Convenience Stores,2,4211,22,0.00522441225362,4.11363636364
A1HqJmeHWvCjd8LChk6pYg,QC,-73.583371,45.5234544,Bily Kun,4.0,Bars|Nightlife,20,158784,56,0.000352680370818,3.86607142857
0lQxmqTwuO13FnKzqLRDMQ,QC,-73.5823051,45.5238586,l'Escogriffe Bar Spectacle,4.5,Nightlife,20,158784,56,0.000352680370818,3.86607142857
X2cz3f_kCXrMmLOMZu1M1A,QC,-73.5840932,45.5226243,Librairie Le port de tête,4.5,"Books, Mags, Music & Video|Used Bookstore|Shopping|Bookstores",20,158784,56,0.000352680370818,3.86607142857
BSN7or2JJyk23S38_rorYA,QC,-73.5582761,45.5160876,Stereo,4.0,Nightlife|Dance Clubs,18,345,69,0.2,3.69565217391
9yLewOQg5gaDj4kIOkekgA,QC,-73.5850503,45.519657,Restaurant Meatmarket,3.5,Food|Specialty Food|Meat Shops,97,507,57,0.112426035503,3.9649122807
M2p_N14HA9koaG1M0o2nxw,QC,-73.6146713,45.5364653,Havres-Aux-Glaces,5.0,Food|Desserts|Ice Cream & Frozen Yogurt,88,1355,54,0.039852398524,4.22222222222
1rQQtLRKsUI30V68tBsG0A,QC,-73.5934223,45.5222642,Jet-Setter,2.5,Shopping|Luggage,49,75083,48,0.000639292516282,3.84375
q9HInAN8pYKl7cOfINHZPw,QC,-73.5555118,45.5022998,Luna Yoga,4.5,Active Life|Yoga|Fitness & Instruction,0,207,65,0.314009661836,3.95384615385
j9mALdpaWQwFno4FSsevIQ,QC,-73.5751207,45.5079837,The Word,5.0,"Books, Mags, Music & Video|Shopping|Bookstores",7,300,73,0.243333333333,3.82191780822
qzPUzAnoDuA3XSv2FpTzRw,QC,-73.5917806,45.5224708,Boulangerie Séraphin,4.5,Bakeries|Food,49,75083,48,0.000639292516282,3.84375
HSEBGQeKZQbvLpmGgq1QyQ,QC,-73.5657665,45.5160121,Auberge Le Jardin D'antoine,5.0,Hotels & Travel|Event Planning & Services|Hotels,64,3428,62,0.0180863477246,3.79032258065
m2_SsniQO2FG8e0T0wtsqQ,QC,-73.57491,45.5325528,Intermarche 4 Freres,2.0,Food|Specialty Food|Grocery,91,24586,36,0.00146424794599,3.98611111111
o3OWZjfJmiaH1sHIbU9rTg,QC,-73.5760953,45.5156179,Librairie Espanola,3.5,"Grocery|Shopping|Food|Books, Mags, Music & Video|Specialty Food|Bookstores",7,300,73,0.243333333333,3.82191780822
gT4UfmFtcsfDIZ0guKujMw,QC,-73.5921194,45.5480525,Cinéma Beaubien,5.0,Arts & Entertainment|Cinema,68,350,6,0.0171428571429,4.66666666667
n3vBeSTaqKJqigXmF5dKhg,QC,-73.5736926,45.5144218,Boutique Oh La La,4.0,Women's Clothing|Fashion|Shopping|Accessories|Shoe Stores,7,300,73,0.243333333333,3.82191780822
WghfWUARaBTegC8e0fX4Qw,QC,-73.5751145,45.5103438,Cinéma du Parc,4.5,Arts & Entertainment|Cinema,7,300,73,0.243333333333,3.82191780822
9ydy9VIuab7YobN-hVdZmw,QC,-73.6146713,45.5364653,Olives & Epices,4.0,Food|Grocery,88,1355,54,0.039852398524,4.22222222222
K71rGGxpt7NWHs9eOxd0Jw,QC,-73.564188,45.5094316,Theatre Du Nouveau Monde,4.0,Arts & Entertainment|Cinema|Performing Arts,47,112753,60,0.000532136617208,3.64166666667
I7di243D0tBTgV8bqLqMlQ,QC,-73.6047931,45.5340768,Spa Ovarium,4.0,Day Spas|Massage|Beauty & Spas,73,11131,26,0.0023358188842,3.82692307692
tnITGYkG7GHDlBEWrgPNYA,QC,-73.6058307,45.5235135,Boulangerie Cheskie,4.5,Bakeries|Food,94,4757,41,0.00861887744377,4.07317073171
wi7yzrkSI6yxRSYkYGgj8w,QC,-73.5760762,45.5238815,Le Petit Fourneau,4.5,Bakeries|Food|Specialty Food|Chocolatiers & Shops,87,7805,44,0.00563741191544,3.97727272727
YK0eg7HWq5nvJv0WPqqsSw,QC,-73.5675926,45.5166304,Atom Heart Musique Alternative,4.5,"Music & DVDs|Books, Mags, Music & Video|Shopping",64,3428,62,0.0180863477246,3.79032258065
qhAz0we4I2RCKxqXSAtlnQ,QC,-73.5589355,45.5032827,Hotel Du Xix E Siecle,4.0,Hotels & Travel|Event Planning & Services|Hotels,0,207,65,0.314009661836,3.95384615385
hBjC15BX_-LV7WfmXItpiw,QC,-73.5561089,45.5054437,Mortimer Snodgrass,4.0,Shopping,0,207,65,0.314009661836,3.95384615385
qOLVK9bFd2Z8tItnRW2Mkg,QC,-73.554507494,45.5040986474,Hotel Nelligan,4.5,Hotels & Travel|Event Planning & Services|Venues & Event Spaces|Hotels,0,207,65,0.314009661836,3.95384615385
zcZlZpXSyxXZmaITau8x_Q,QC,-73.5887951,45.521919,Choppe à Barrock,3.5,"Food|Beer, Wine & Spirits|Shopping|Hobby Shops",97,507,57,0.112426035503,3.9649122807
iRN-t0-VdvFW8c-V_YqnEw,QC,-73.6022328,45.5357216,Creation Dracolite,4.5,Women's Clothing|Arts & Crafts|Fashion|Shopping|Jewelry,73,11131,26,0.0023358188842,3.82692307692
fTWxoGf7lGS7z1hY4rgA5w,QC,-73.582982,45.5343736,Les Saveurs Du Plateau,4.5,Event Planning & Services|Caterers,82,1715,18,0.0104956268222,3.94444444444
8GezArMk8k4gfCKrri1Dkg,QC,-73.5751145,45.5103438,Les Galeries du Parc,3.0,Shopping Centers|Shopping,7,300,73,0.243333333333,3.82191780822
pli8xFEVIgIkSC104-lcbw,QC,-73.5755488,45.5157039,Alim-Pot,4.0,Food|Specialty Food,7,300,73,0.243333333333,3.82191780822
7oeUUBq6VV0gznaLdkeelg,QC,-73.5984436,45.5275093,Jeans Jeans Jeans,4.5,Shopping|Outlet Stores,94,4757,41,0.00861887744377,4.07317073171
VsjMmuz_8CF_HvOPjUuRZQ,QC,-73.5688779,45.5418766,La Maison du Rôti,5.0,Food|Specialty Food|Butcher,4,2941,12,0.00408024481469,4.08333333333
oOvoFR4Sh_vQ3DNQsinnaw,QC,-73.5732483,45.5193422,Primitive Disques,3.5,"Music & DVDs|Books, Mags, Music & Video|Shopping",87,7805,44,0.00563741191544,3.97727272727
6RMRZqdaPVwsHjd6sy_lzg,QC,-73.57249,45.5190518,Bottine Aux Herbes,4.5,Nutritionists|Health Markets|Specialty Food|Food|Traditional Chinese Medicine|Health & Medical,87,7805,44,0.00563741191544,3.97727272727
jwpzSJQx_GAJsMe-7CtJvg,QC,-73.5752103,45.513014,McGill University Health Center,4.5,Hospitals|Medical Centers|Health & Medical,7,300,73,0.243333333333,3.82191780822
PUgThTQJPqzBGoXYP5hWPg,QC,-73.580002,45.5199923,Bicycletterie Jr Cyclery,4.5,Active Life|Sporting Goods|Bikes|Shopping|Bike Rentals,72,6015,44,0.00731504571904,4.01136363636
q_-5k5jdUKXNDLjn1cScYg,QC,-73.5752953,45.5319509,La Boite A Coiffer,3.5,Hair Salons|Beauty & Spas,91,24586,36,0.00146424794599,3.98611111111
hwHkQPyRZGGKRjNEaTu4pw,QC,-73.6282935,45.5438494,Taverne Jarry,4.5,Arts & Entertainment|Nightlife|Music Venues,25,1488,15,0.0100806451613,3.86666666667
Yap18ivQaYGYDfNnSdhvCQ,QC,-73.6135752,45.532634,Evangelista Sports,4.5,Sporting Goods|Shopping,88,1355,54,0.039852398524,4.22222222222
PamzHbRexeR0hxN71tRUOw,QC,-73.6277605,45.54484,Marché Méli-Mélo,4.5,Food|Ethnic Food|Specialty Food,25,1488,15,0.0100806451613,3.86666666667
TOWojSgFKv46_NHqfX5lfg,QC,-73.5840724,45.5190565,Les Bobards,4.0,Bars|Nightlife,97,507,57,0.112426035503,3.9649122807
1mZqy49cw0YkansmE5EAWA,QC,-73.5825295,45.5239488,Quai Des Brumes,4.0,Bars|Arts & Entertainment|Nightlife|Music Venues,20,158784,56,0.000352680370818,3.86607142857
pTyRcJwgihuNvSX6bT3m8g,QC,-73.5756048,45.5318726,Boucherie Champfleuri,3.5,Food|Specialty Food,91,24586,36,0.00146424794599,3.98611111111
oX2nvQdjlVJ2wuiu3kCMKA,QC,-73.6146009,45.532801,Milano Fruiterie,4.5,Food|Specialty Food|Grocery|Fruits & Veggies,88,1355,54,0.039852398524,4.22222222222
X2P89d1ut0XjCdOBluQBBg,QC,-73.5879994,45.5410253,Nigelle Café,4.5,Bakeries|Food|Specialty Food|Ethnic Food,68,350,6,0.0171428571429,4.66666666667
5cl76saeX-lnNKtyR0f3cQ,QC,-73.5941876,45.521337,Nettoyeurs La Planche A Repasser,2.5,Local Services|Dry Cleaning & Laundry,49,75083,48,0.000639292516282,3.84375
X5ZIdOHpJ_aNxJqw7BEL_g,QC,-73.5523466,45.5069444,Queues De Castor,2.5,Bakeries|Food,62,86251,53,0.000614485629152,3.82075471698
ieUk5bgTIzIZiZ1fIapntw,QC,-73.5653759,45.514836,La Distillerie,4.5,Pubs|Bars|Nightlife,64,3428,62,0.0180863477246,3.79032258065
xyBmRzf8ZjrI9hGaPWLTlw,QC,-73.5740541,45.5144556,A Gogo Lounge,4.0,Bars|Nightlife|Lounges,7,300,73,0.243333333333,3.82191780822
xP9qxjXuo3LoGKIkOOozHw,QC,-73.6014127,45.5230999,Librairie S W Welch,4.5,"Books, Mags, Music & Video|Shopping|Bookstores",94,4757,41,0.00861887744377,4.07317073171
di4J7RmeNSmBN6qGj9rqng,QC,-73.5603463,45.5083174,My Cup Of Tea,5.0,Food|Tea Rooms,47,112753,60,0.000532136617208,3.64166666667
nF5iZExmMKVKHavPHQozcQ,QC,-73.5769436,45.5112645,Clinique Medicale De La Cite,1.5,Medical Centers|Health & Medical,7,300,73,0.243333333333,3.82191780822
oaa08JJ6nK49aTI6r4j9yA,QC,-73.5858676,45.5207445,Cruella,3.5,Women's Clothing|Men's Clothing|Fashion|Shopping|Accessories,97,507,57,0.112426035503,3.9649122807
-oURDi11JeZNtZHXojZBKw,QC,-73.57279,45.5349417,La Boîte à Coiffer II,4.5,Hair Salons|Beauty & Spas,91,24586,36,0.00146424794599,3.98611111111
8wtZw9RZu-NfsdGH4QuU7A,QC,-73.5794512,45.5277515,SAQ,4.0,"Food|Beer, Wine & Spirits",20,158784,56,0.000352680370818,3.86607142857
0ds71odjO7XMDwS1EgOpsw,QC,-73.5743586,45.5146233,St-Laurent Bifteck,4.0,Bars|Nightlife,7,300,73,0.243333333333,3.82191780822
fMujzg-W2DsR1b4ByOzhFg,QC,-73.5731359,45.51966,Marcel Proulx Horticulteur,2.0,Flowers & Gifts|Shopping|Florists,87,7805,44,0.00563741191544,3.97727272727
hSG7RByuhmS9xoPPskx9VQ,QC,-73.579381,45.5169321,Friperie Saint-Laurent,3.5,"Used, Vintage & Consignment|Fashion|Shopping",72,6015,44,0.00731504571904,4.01136363636
X8iGjDH69ztBd2Xpx2WPuQ,QC,-73.5603949,45.5075259,Jade Garden Cafe,1.0,,47,112753,60,0.000532136617208,3.64166666667
58s_ADDrDMyQwTrcKFu0RQ,QC,-73.5906833,45.5291942,Taverne La Remise,3.5,Bars|Nightlife|Karaoke,82,1715,18,0.0104956268222,3.94444444444
kdYMhbDfriHvDNq1i5vuVQ,QC,-73.5876761,45.5291213,Torrefiction,4.5,"Videos & Video Game Rental|Books, Mags, Music & Video|Shopping|Music & DVDs",82,1715,18,0.0104956268222,3.94444444444
UN1rubEZoNDqusueyqjLCg,QC,-73.610069,45.518898,Bilboquet,4.0,Food|Ice Cream & Frozen Yogurt|Desserts,85,18163,13,0.000715740791719,4.23076923077
msLkWQHmGhrOW2ySG0EwdQ,QC,-73.5802839,45.4931792,Boutique Onze,3.5,Women's Clothing|Fashion|Shopping,17,940,63,0.0670212765957,3.80952380952
STkjgrAQVXVioJER_Z9_Ww,QC,-73.5591212191,45.5157930549,Gouverneur Hotel Montreal,3.0,Hotels & Travel|Event Planning & Services|Hotels,18,345,69,0.2,3.69565217391
xFk2fgHxNo7Q71NtDrHbRw,QC,-73.5495544,45.5258833,La Cordee,3.5,Sporting Goods|Shopping,18,345,69,0.2,3.69565217391
PKQeIFjASPb4m4-OiPZlkg,QC,-73.559748,45.5188135,Gotha Salon Bar,3.5,Bars|Nightlife|Lounges,18,345,69,0.2,3.69565217391
xtU1_bSj54yDr7tVhBPzBQ,QC,-73.5581089,45.5165408,Pharmaprix,3.5,Shopping|Eyewear & Opticians|Drugstores,18,345,69,0.2,3.69565217391
YYnVYyIBfmJKwIckDO9egQ,QC,-73.5551571,45.5031158,Les Passants du Sans Soucy,4.5,Hotels & Travel|Bed & Breakfast,0,207,65,0.314009661836,3.95384615385
lyEzCq8M7QBTRyyY4qjzfA,QC,-73.5627287,45.5108973,Club 281,4.0,Adult Entertainment|Bars|Nightlife|Lounges,47,112753,60,0.000532136617208,3.64166666667
Jj-DPBmqbgaKoW5VQ6UdNg,QC,-73.587602,45.525705,Charme et Sortilege,4.5,Arts & Entertainment|Psychics & Astrologers,20,158784,56,0.000352680370818,3.86607142857
y7M0N1vG-NE8jJmBT9uyQw,QC,-73.5668281,45.5183883,Double Tree Plaza Hotel,2.5,Hotels & Travel|Event Planning & Services|Hotels,64,3428,62,0.0180863477246,3.79032258065
gwOEa5q1TirafuoEXXUgzA,QC,-73.5557225,45.5010311,Centre D'histoire De Montreal,4.0,Museums|Arts & Entertainment,0,207,65,0.314009661836,3.95384615385
mOEMGFys2l9Bw6pwU5pQAA,QC,-73.563728,45.51675,Gare d'Autocars de Montréal,3.0,Hotels & Travel|Public Transportation|Transportation,64,3428,62,0.0180863477246,3.79032258065
3YrtI56pprweEE72U3FH4w,QC,-73.5661922,45.5165251,La Capoterie,3.0,Flowers & Gifts|Shopping,64,3428,62,0.0180863477246,3.79032258065
2H0aDSNWCd150lOTrEI-tQ,QC,-73.5577221,45.5166645,St-Laurent Salon de Coiffure et Academie,3.5,Cosmetology Schools|Specialty Schools|Education,18,345,69,0.2,3.69565217391
S4z7fjgPcEk2-HlLMApwOQ,QC,-73.5596212,45.5085695,Chow Pastry,3.5,Bakeries|Food,47,112753,60,0.000532136617208,3.64166666667
8BJlcmMK_6WiijyRyuJUGg,QC,-73.5733532,45.5142973,Boutique Scandale,3.5,Women's Clothing|Arts & Crafts|Fashion|Shopping,7,300,73,0.243333333333,3.82191780822
TUDVrrDVkB9CFUGsIbocbw,QC,-73.6059834,45.5291461,The Canadian Tire Gas Station,2.5,Automotive|Gas & Service Stations,2,4211,22,0.00522441225362,4.11363636364
k4wc9ypPbjiiLjt97MCdlQ,QC,-73.5870119,45.5194879,SAQ,3.5,"Food|Beer, Wine & Spirits",97,507,57,0.112426035503,3.9649122807
3yC_r59I5Ns9JpnLyQgE4g,QC,-73.5849878,45.5250866,Tornade Academie Coiffure,3.5,Education|Beauty & Spas,20,158784,56,0.000352680370818,3.86607142857
KxampCnWLJOgUmdLsSzVQA,QC,-73.5610163,45.5191852,Auberge De Jeunesse Alexandrie,5.0,Hotels & Travel|Hostels,18,345,69,0.2,3.69565217391
K0FoV3wpDGUPvcaa0FhnMg,QC,-73.606874,45.5349119,Boutique Endurance,4.5,Sporting Goods|Fashion|Shopping|Shoe Stores,2,4211,22,0.00522441225362,4.11363636364
16Afvcpkxcd2s7jTph4R4g,QC,-73.5781982,45.5081188,University Bed & Breakfast,3.0,Hotels & Travel|Bed & Breakfast|Event Planning & Services|Hotels,7,300,73,0.243333333333,3.82191780822
MJmXQb1SBXPNgXKZ7g1koQ,QC,-73.5505989,45.521942,Ctv Montreal,1.5,Television Stations|Mass Media,18,345,69,0.2,3.69565217391
Ls88NWDxP_sdcGstei-1mA,QC,-73.606033,45.5380932,Iga Marche Barcelo,3.5,Food|Grocery,73,11131,26,0.0023358188842,3.82692307692
bSjPhATCDmnYgVHjWeqYhw,QC,-73.6013794,45.5234108,Bio Terre,3.5,Health Markets|Food|Grocery|Specialty Food,94,4757,41,0.00861887744377,4.07317073171
LTt-TlmfNB8yj9KdjsBnTQ,QC,-73.5598129,45.5018645,Clinique Dentaire Du Vieux Montreal,4.5,Health & Medical|Dentists|General Dentistry,0,207,65,0.314009661836,3.95384615385
RFfY6nC2RgXCag5yjzPQSQ,QC,-73.5807486,45.5229894,lululemon athletica,3.5,Fashion|Shopping|Sporting Goods|Active Life|Fitness & Instruction|Women's Clothing|Yoga|Sports Wear,20,158784,56,0.000352680370818,3.86607142857
QTqYsOUOHqU2Yy1Rh12GjQ,QC,-73.5563177,45.5183339,Bar Stock,3.5,Adult Entertainment|Bars|Gay Bars|Nightlife,18,345,69,0.2,3.69565217391
SC2WTQ_GweI_zXl4sA4naw,QC,-73.6092396,45.5196,Boulangerie Premiere Moisson,4.5,Bakeries|Food,85,18163,13,0.000715740791719,4.23076923077
ri7Id7pdJI-Sh8puANrGHw,QC,-73.5947578,45.5189943,Bar Primetime,4.0,Nightlife,49,75083,48,0.000639292516282,3.84375
dVjtpCh0Y6rbHcx3Bhhc1g,QC,-73.601596,45.5544489,La Conca D'oro,4.5,Bakeries|Food,41,7908,8,0.00101163378857,4.3125
yEkLzt00kthi5iA5NErSFg,QC,-73.5600775,45.5162876,Place Dupuis,4.0,Shopping Centers|Shopping,18,345,69,0.2,3.69565217391
xbux32aWWXNNx9PeMb4tBw,QC,-73.5850309,45.5216445,Salon Daome,4.0,Nightlife|Dance Clubs,97,507,57,0.112426035503,3.9649122807
alsACwh1f5qR6LI3Afl1zw,QC,-73.5640953,45.5101377,Le Loft Club,2.0,Nightlife|Dance Clubs,47,112753,60,0.000532136617208,3.64166666667
C9zCQ04M7HddK_UvHPF5zA,QC,-73.5553664,45.5180303,Bed & Breakfast Du Village Enr,5.0,Hotels & Travel|Event Planning & Services|Hotels,18,345,69,0.2,3.69565217391
aXalseOIYr8GMxVkanH16Q,QC,-73.5818296,45.5252325,Boul Noir,4.0,Arts & Entertainment|Pool Halls|Bars|Casinos|Nightlife|Lounges,20,158784,56,0.000352680370818,3.86607142857
mh1-aoftJsOWuwNyfC6a7w,QC,-73.6018415,45.5355438,Pousse L'ananas,4.5,Food|Grocery|Organic Stores,73,11131,26,0.0023358188842,3.82692307692
mrrQDT8usXnTmRS57hyT1w,QC,-73.5950582376,45.520655772,Orbite,3.5,Hair Salons|Beauty & Spas,49,75083,48,0.000639292516282,3.84375
kHB5JPUzZIkK9CxgJrXx4g,QC,-73.5537628,45.520878,Sky Pub Club,4.0,Pubs|Bars|Nightlife|Dance Clubs,18,345,69,0.2,3.69565217391
R1jfNJTn-Xts6KJ9ie4ufA,QC,-73.5844468,45.5193814,Boulangerie Samos,4.0,Bakeries|Food,97,507,57,0.112426035503,3.9649122807
-WlAq0F_zcITanB1V14Jww,QC,-73.5729424,45.514086,B Side,3.5,Nightlife,7,300,73,0.243333333333,3.82191780822
jhJE-59bwZTFaNXprj1G6Q,QC,-73.6154202,45.5333424,Cigare & Compagnie,4.5,Tobacco Shops|Shopping,88,1355,54,0.039852398524,4.22222222222
buDjx8-y-dur_BfIFklyvg,QC,-73.5549751,45.5044668,Le Saint-Sulpice Hotel,4.5,Hotels & Travel|Event Planning & Services|Hotels,0,207,65,0.314009661836,3.95384615385
3CzQZ7Cqdgn5GAnsw-XAJQ,QC,-73.5731298,45.5140639,Johnny Boy,4.5,Women's Clothing|Men's Clothing|Fashion|Shopping,7,300,73,0.243333333333,3.82191780822
fB8OIAiKNXEPrwQ3nKEaTg,QC,-73.5614077,45.5124368,Van Houtte,3.0,Food,47,112753,60,0.000532136617208,3.64166666667
bMeRjJSiSZq1Izjvj7bvaQ,QC,-73.5788606,45.5219535,Les Marches D'aliments Naturels Tau,3.5,Health Markets|Food|Specialty Food,20,158784,56,0.000352680370818,3.86607142857
aYv2FA1KOHnpU8LPlwGEqg,QC,-73.578122,45.521783,L'Barouf,4.0,Bars|Nightlife,87,7805,44,0.00563741191544,3.97727272727
xuhJC0jmJ_L7GqwwLABjSg,QC,-73.6074116,45.5313545,Boucherie St Viateur,3.5,Food|Specialty Food|Butcher,2,4211,22,0.00522441225362,4.11363636364
2Iup2Vq1SWBcfcECFP8vwQ,QC,-73.5758004,45.5205929,SAQ,4.0,"Food|Beer, Wine & Spirits",87,7805,44,0.00563741191544,3.97727272727
c98PT7kqkbqB32p1riVkwA,QC,-73.5512645,45.5099439,Chapelle Notre-Dame-De-Bonsecours Musee Marguerite B,4.5,Religious Organizations,62,86251,53,0.000614485629152,3.82075471698
mRvfPqj-Irp78JFRPup3wQ,QC,-73.5835962,45.518735,Bummis,5.0,Children's Clothing|Fashion|Shopping|Home & Garden|Baby Gear & Furniture|Furniture Stores,97,507,57,0.112426035503,3.9649122807
qaZctjzm9YWjGNt05mKK2A,QC,-73.5626163,45.5138306,Cinémathèque Québécoise,4.5,Arts & Entertainment|Cinema,64,3428,62,0.0180863477246,3.79032258065
65ArScO1ePw0Z_cGN5cJYQ,QC,-73.5743258392,45.5222851387,Les Chocolats de Chloé,4.5,Food|Specialty Food|Chocolatiers & Shops,87,7805,44,0.00563741191544,3.97727272727
oaGZ9nTY8xA1YOv1UwqkjQ,QC,-73.6166466,45.5338969,Pile Ou Glace,4.0,Food|Ice Cream & Frozen Yogurt,88,1355,54,0.039852398524,4.22222222222
A1rvOpMjlWzdEJlPKd4Org,QC,-73.5559346,45.5186253,Club Date Piano-Bar,3.5,Bars|Nightlife|Karaoke,18,345,69,0.2,3.69565217391
6uI0NQ1jbHTeTCAkyGNkMg,QC,-73.5913638,45.530774,Volkswagen Automobiles Popular (Les),1.5,Automotive|Car Dealers,82,1715,18,0.0104956268222,3.94444444444
SxDenXH2Uk2Q0A6s9QsTVQ,QC,-73.6046503,45.5245007,Boulangerie Capucine Et Tournesol,4.5,Bakeries|Food,94,4757,41,0.00861887744377,4.07317073171
82pyhNU3xiYMOfdjsifX5Q,QC,-73.6138,45.5362046,Aliments Merci Merci Mère Nature,4.0,Health Markets|Food|Organic Stores|Specialty Food,88,1355,54,0.039852398524,4.22222222222
h_SsZ1AiZgzy4k4vKItVMg,QC,-73.5735457,45.5144739,Boucherie Charcuterie Slovenia,4.0,Food|Specialty Food|Meat Shops|Butcher,7,300,73,0.243333333333,3.82191780822
zb01gN65HaDO1TfRHqVoIg,QC,-73.5617783,45.5124112,Studio D'exhibitioniste Pussy Corps,4.0,Adult Entertainment|Nightlife,47,112753,60,0.000532136617208,3.64166666667
bVfkZMFXO7sSr_VNWXWs9w,QC,-73.5559571,45.5186939,Le National,4.5,Arts & Entertainment|Nightlife|Music Venues,18,345,69,0.2,3.69565217391
iAqW3VU9vRp-CZJBdYzpJA,QC,-73.557994,45.514048,Hotel Lord Berri,2.5,Hotels & Travel|Event Planning & Services|Hotels,18,345,69,0.2,3.69565217391
avEIUzuv3k5_D0psOg9GIg,QC,-73.5833364,45.5236403,Papeterie Guérin,3.0,Art Supplies|Office Equipment|Shopping|Arts & Crafts,20,158784,56,0.000352680370818,3.86607142857
7yosOEWC4Q9-yx81lQxH-Q,QC,-73.5734642,45.519676,John Fluevog,5.0,Fashion|Shopping|Shoe Stores,87,7805,44,0.00563741191544,3.97727272727
97Av86Ad7b6YFMBt4qLWzg,QC,-73.6062887,45.5324248,Cafe Grain D'or,4.5,Food,2,4211,22,0.00522441225362,4.11363636364
kzRbdFqEduBnJXPI_X1prg,QC,-73.5730031,45.5346039,Le Péché Glacé,4.5,Food|Ice Cream & Frozen Yogurt,91,24586,36,0.00146424794599,3.98611111111
P0jNDFY-SJ_StZDI4SJD_Q,QC,-73.5722551,45.5191148,Beatnick Disques,3.5,"Music & DVDs|Books, Mags, Music & Video|Vinyl Records|Shopping",87,7805,44,0.00563741191544,3.97727272727
_irxvP_LNhhoY932Yo9sVQ,QC,-73.5965711,45.518645,Lyla Collection,3.0,Lingerie|Shopping|Fashion,49,75083,48,0.000639292516282,3.84375
ch5ivbtU5TacN4xRbY6Qxg,QC,-73.6023793,45.5367655,SAQ Sélection,4.5,"Food|Beer, Wine & Spirits",73,11131,26,0.0023358188842,3.82692307692
twzgrzphXT7oa0II673-6A,QC,-73.5933347,45.5187146,La Petite Idee Fixe,3.5,Nightlife,49,75083,48,0.000639292516282,3.84375
lixWKT2QLl46QQwsUVzqsw,QC,-73.572763,45.514159,Boulangerie Au Pain Doré,4.0,Bakeries|Food,7,300,73,0.243333333333,3.82191780822
H1jaLrj928aGzKl-wmLlBA,QC,-73.5634552,45.5368562,Depanneur Bonisoir,4.5,Food|Convenience Stores,4,2941,12,0.00408024481469,4.08333333333
Fm_glDvL4tWxPQpij8-MTg,QC,-73.5679445,45.5207747,Le Grand Cycle Enr,3.0,Sporting Goods|Bikes|Shopping,64,3428,62,0.0180863477246,3.79032258065
z72ca9aGkKflhKXgvV1caw,QC,-73.5738613,45.5145152,Nino Cuisine,4.5,Shopping|Food|Home & Garden|Specialty Food|Kitchen & Bath|Herbs & Spices,7,300,73,0.243333333333,3.82191780822
Wm00PmK06daEyo_Lvhuraw,QC,-73.5594851677,45.5026815258,Hotel Le St-James,4.5,Hotels & Travel|Event Planning & Services|Hotels,0,207,65,0.314009661836,3.95384615385
FX9HVY1o-XhyXANPiAPIwA,QC,-73.6019661,45.5356004,Biscuiterie Oscar,4.5,Food|Specialty Food|Candy Stores,73,11131,26,0.0023358188842,3.82692307692
sD8F6SydpYEy5whICsO27g,QC,-73.6146713,45.5364653,Wawel Patisserie,4.5,Bakeries|Food,88,1355,54,0.039852398524,4.22222222222
c6f4_lBK1pEn7DTMW4nFIw,QC,-73.5529775,45.505896,Ca Roule Montreal,4.5,Active Life|Sporting Goods|Bikes|Shopping|Bike Rentals,62,86251,53,0.000614485629152,3.82075471698
fvNjNBCM0_yH_r2Mja-xow,QC,-73.6043432,45.5252374,D'Un Sport A L'Autre,2.5,Sporting Goods|Shopping|Outdoor Gear,94,4757,41,0.00861887744377,4.07317073171
Xl4wtRDBc_lmANlPl0n-8Q,QC,-73.563372,45.5105348,Métropolis,3.5,Arts & Entertainment|Nightlife|Music Venues,47,112753,60,0.000532136617208,3.64166666667
nQSryfcBfMEOI-taawSlAQ,QC,-73.5745934,45.5149488,Tokyo Bar,3.5,Bars|Nightlife,7,300,73,0.243333333333,3.82191780822
F_0Sc_Q9vbLcaFKAOXA_zw,QC,-73.5648629,45.5158507,Hotel Quartier Latin,3.0,Hotels & Travel|Event Planning & Services|Hotels,64,3428,62,0.0180863477246,3.79032258065
2cQezutYyzt-tCH7mOfBzg,QC,-73.5586577,45.5156163,Ernest Homme,5.0,Men's Clothing|Fashion|Shopping,18,345,69,0.2,3.69565217391
tGhhKFVJQuaZmnQHORB7EQ,QC,-73.5785432,45.5287761,Bella Pella,4.0,Health Markets|Food|Specialty Food,91,24586,36,0.00146424794599,3.98611111111
If2TR8z7WAFu3RLj93MxSw,QC,-73.6025258,45.5269746,Local 23,4.5,Thrift Stores|Shopping,94,4757,41,0.00861887744377,4.07317073171
WcWisNsMkJDGS4dtB-KS7Q,QC,-73.5592019,45.5016652,Boutique Rooney,4.0,Fashion|Shopping,0,207,65,0.314009661836,3.95384615385
YtlTKq3v2uxibBjl4WkFVA,QC,-73.5838172,45.5333916,Solo Echantillons,4.5,Women's Clothing|Arts & Crafts|Fashion|Shopping|Accessories,82,1715,18,0.0104956268222,3.94444444444
X40R8qK5dcse8A2in4OlRQ,QC,-73.5934072,45.5225221,Lave-Auto St-Urbain Laurier,3.0,Car Wash|Automotive|Auto Detailing,49,75083,48,0.000639292516282,3.84375
MRdKr3iHltw8vUJCvWlq7Q,QC,-73.5813841,45.5358469,Restaurant Chez MAI Lan,2.5,,82,1715,18,0.0104956268222,3.94444444444
TVrKvnK-DkJvl-8tTMvMXw,QC,-73.604415,45.5231777,Fruiterie Mile-End,4.0,Food|Specialty Food|Fruits & Veggies,94,4757,41,0.00861887744377,4.07317073171
ZHjG7GleA5xBrq7DLxcZNg,QC,-73.5709281,45.5090469,Hotel Casa Bella,3.5,Hotels & Travel|Event Planning & Services|Hotels,53,2454,102,0.041564792176,3.53921568627
0nZF5ZPU6NSGsIzlCzlJ2A,QC,-73.5699078,45.5377121,Hopital Veterinaire Journet,5.0,Veterinarians|Pets,4,2941,12,0.00408024481469,4.08333333333
Dy_4GxbjGmy178b12g17vw,QC,-73.5663321,45.5130188,Jello Martini Lounge,4.5,Music Venues|Bars|Arts & Entertainment|Nightlife|Lounges,64,3428,62,0.0180863477246,3.79032258065
8XieOwj1sXI_XkEv4gcNRA,QC,-73.6113137,45.5398021,Ongle Milie Manicure & Pedicure,1.5,Beauty & Spas|Nail Salons,30,3626,14,0.003861003861,3.60714285714
NB-ycwaL1RqX1rrV4ibpgQ,QC,-73.6092075,45.5282719,The Home Depot,3.0,Hardware Stores|Nurseries & Gardening|Shopping|Appliances|Home & Garden,2,4211,22,0.00522441225362,4.11363636364
YijigipGM6SlaVhkX75Zdw,QC,-73.5727014,45.5105604,Studio De Coiffure 214,4.5,Hair Salons|Barbers|Beauty & Spas,7,300,73,0.243333333333,3.82191780822
HRICFHnWtANGkQI7-DuONQ,QC,-73.5671469768,45.5079384032,Musee D'art Contemporain de Montréal,4.0,Museums|Arts & Entertainment,47,112753,60,0.000532136617208,3.64166666667
3SpEgJYz70viiHPk3KX-DQ,QC,-73.5607568,45.5025371,Universal Currency Exchange,4.5,Financial Services|Currency Exchange,0,207,65,0.314009661836,3.95384615385
HqmqErvf2-n0WxWm45lvrw,QC,-73.5797901,45.5202246,Patisserie Notre-Dame Du Rosaire,4.0,Bakeries|Food,72,6015,44,0.00731504571904,4.01136363636
P5E6qD454L49sfAz-zKx3w,QC,-73.5596495,45.5146644,Archambault,4.5,"Music & DVDs|Books, Mags, Music & Video|Musical Instruments & Teachers|Shopping|Bookstores",18,345,69,0.2,3.69565217391
TUD0E_iuWDSrEWIl0wsQOQ,QC,-73.5545512,45.5063599,SpringHill Suites Old Montreal,4.0,Hotels & Travel|Event Planning & Services|Hotels,62,86251,53,0.000614485629152,3.82075471698
RVmKeY-wjbN8QiyarZ2egA,QC,-73.602956,45.522449,ABC Cycles & Sports,2.0,Bikes|Sporting Goods|Fashion|Shopping|Sports Wear,94,4757,41,0.00861887744377,4.07317073171
ZCRj4wSVJCUgiLT7ARPSfA,QC,-73.565423,45.5312114,Metro Bigras,2.0,Food|Grocery,4,2941,12,0.00408024481469,4.08333333333
2va9Ql6OCNWniepqb0eLlA,QC,-73.563579,45.514993,Les 3 Brasseurs,3.0,Pubs|Food|Bars|Breweries|Nightlife,64,3428,62,0.0180863477246,3.79032258065
8FhSTqMWf3nRh2Ra30_ROg,QC,-73.5562355,45.5011815,Espace Pepin,4.0,Women's Clothing|Fashion|Shopping,0,207,65,0.314009661836,3.95384615385
_FCZS0d8KrV5PICuyTQ9qA,QC,-73.5723647,45.5190299,Photo St Denis,3.5,Hobby Shops|Shopping|Photography Stores & Services,87,7805,44,0.00563741191544,3.97727272727
DxUTALMW07FD4YlY3jTgAQ,QC,-73.5718818,45.5357321,Quincaillerie Rona,4.0,Hardware Stores|Shopping|Home & Garden,91,24586,36,0.00146424794599,3.98611111111
jl2eDqw81T44eGJ5PqxCLg,QC,-73.5753469,45.5331586,La Tulipe,4.0,Music Venues|Arts & Entertainment|Nightlife|Dance Clubs,91,24586,36,0.00146424794599,3.98611111111
q5zaxKDTNRYTvSwMVHm-CA,QC,-73.5833358765,45.5234276879,Hed Salon,5.0,Hair Salons|Beauty & Spas,20,158784,56,0.000352680370818,3.86607142857
s5SR0faaaE8PmiZjeIJv1Q,QC,-73.5722572,45.5144747,Café Campus,3.5,Arts & Entertainment|Dance Clubs|Bars|Nightlife|Music Venues,7,300,73,0.243333333333,3.82191780822
2fTwbXUp04k-VPSwE7S-BQ,QC,-73.5833421,45.51862,Blank,4.5,Women's Clothing|Men's Clothing|Fashion|Shopping|Children's Clothing,97,507,57,0.112426035503,3.9649122807
zca-aUYe9Q_yEIXeNCW7Ww,QC,-73.5764998,45.515806,Charcuterie Fairmount,5.0,Food|Specialty Food|Butcher,72,6015,44,0.00731504571904,4.01136363636
4T6CsZE4BSTM2FCEOJkWMg,QC,-73.5947319,45.5236142,Au Papier Japonais,4.5,Art Schools|Specialty Schools|Shopping|Arts & Crafts|Education|Event Planning & Services|Cards & Stationery|Art Supplies|Flowers & Gifts,49,75083,48,0.000639292516282,3.84375
dZm0Au2N6FpbjFi2o84lTA,QC,-73.5831377,45.5242012,Orienthé,3.0,Food|Tea Rooms|Bars|Hookah Bars|Nightlife,20,158784,56,0.000352680370818,3.86607142857
Mdh8U_K-gSPCxjWD5Md4eA,QC,-73.5786055,45.5168045,Frenco,4.0,Food|Grocery|Organic Stores,72,6015,44,0.00731504571904,4.01136363636
-AydDtbScKj7TCrJ6gDKwg,QC,-73.5859541,45.520778,Nautilus Plus,3.5,Active Life|Gyms|Trainers|Fitness & Instruction,97,507,57,0.112426035503,3.9649122807
8r83iMBwGwLph1f3U7UBgw,QC,-73.5852648,45.5212133,Paul Boutique,3.0,"Music & DVDs|Books, Mags, Music & Video|Shopping",97,507,57,0.112426035503,3.9649122807
rV--G-Mi2jwxO9ZTj-Lb9A,QC,-73.5780442,45.5163433,Cafe Saint Laurent Frappe (Le),2.5,Nightlife,72,6015,44,0.00731504571904,4.01136363636
8EfFCFsf78V4sew7a_-1DQ,QC,-73.557994,45.514048,Lord Berri Hotel Vieux Montreal,3.5,Hotels & Travel|Event Planning & Services|Hotels,18,345,69,0.2,3.69565217391
yCz0ps3U1e2Tr4zhLw5Qtw,QC,-73.6441061949,45.5422068764,Solid Gold Bar Salon,3.0,Adult Entertainment|Nightlife,89,3733,6,0.00160728636485,3.41666666667
XKciAbtzLKefo4MG21SOvQ,QC,-73.5942886,45.5236125,Sivananda Yoga Vedanta Centre,4.5,Active Life|Yoga|Specialty Schools|Education|Fitness & Instruction,49,75083,48,0.000639292516282,3.84375
T5sjJYrlArW46ecxlbKZ2w,QC,-73.5931701,45.5224785,Dieu du Ciel!,4.5,Pubs|Bars|Nightlife,49,75083,48,0.000639292516282,3.84375
LKJvFfz8PEQUbUZT663B6w,QC,-73.5669087504,45.5087255975,Place des Arts,4.5,Arts & Entertainment|Nightlife|Music Venues,47,112753,60,0.000532136617208,3.64166666667
5C_sZn-WDvHWd-W8HY7fjw,QC,-73.5635502,45.5146452,Cineplex Quartier Latin,3.5,Arts & Entertainment|Cinema,64,3428,62,0.0180863477246,3.79032258065
I4Mzaj_nYCLndVWI4GXTmw,QC,-73.5849797,45.5216535,Aime Com Moi,4.0,Women's Clothing|Fashion|Shopping,97,507,57,0.112426035503,3.9649122807
CXl6rBmM8cnt6LeBEO1S4w,QC,-73.56943,45.5120134,Hotel 10,3.0,Hotels & Travel|Event Planning & Services|Hotels,7,300,73,0.243333333333,3.82191780822
lL8mKPZ2WzT-VOoKDyKsNw,QC,-73.5894415,45.516907,Hotel Plateau Royale,2.5,Hotels & Travel|Event Planning & Services|Hotels,97,507,57,0.112426035503,3.9649122807
xX0WxtJxXOt-ctT7IVBc-A,QC,-73.5734975,45.5143488,Balroom Bar,4.0,Casinos|Arts & Entertainment|Pool Halls|Nightlife,7,300,73,0.243333333333,3.82191780822
5PWdzbsHwfyAhFSw2idKDA,QC,-73.5302621,45.5562546,Ponton Joseph Costumes,3.5,Arts & Crafts|Shopping|Costumes,11,91726,8,8.72162745568e-05,3.6875
ymLLrm2-Sv1SyUZfMPb4dg,QC,-73.5808272,45.5262755,Boudoir Café-Bar,3.0,Dive Bars|Bars|Nightlife|Lounges,20,158784,56,0.000352680370818,3.86607142857
B46c5O0uZOHqop4U9vSrsg,QC,-73.556107,45.5186829,Autour D'un Pain,3.5,Bakeries|Food,18,345,69,0.2,3.69565217391
nRqIZrtHCJUjREwp4k40cA,QC,-73.6074179,45.531556,Giusetpe Furneri Salon De Barbier Milano,4.5,Hair Salons|Barbers|Beauty & Spas,2,4211,22,0.00522441225362,4.11363636364
ZLdvcQM1PLf52tMNqidNoA,QC,-73.5837638,45.5245438,Alchimiste En Herbe,4.5,Health Markets|Food|Traditional Chinese Medicine|Health & Medical|Specialty Food,20,158784,56,0.000352680370818,3.86607142857
FTlAwQqJIsh7ngF0GyG-sg,QC,-73.552627,45.5243273,Bar Taboo,3.5,Adult Entertainment|Bars|Gay Bars|Nightlife,18,345,69,0.2,3.69565217391
V3yjF3zcwCZPVijvfFQBuQ,QC,-73.5684267,45.5174518,Le P'tit Bar Du Carre,4.5,Nightlife,64,3428,62,0.0180863477246,3.79032258065
oW0fZvzOzqJyp3EE1dzRXQ,QC,-73.6196061,45.5350831,Fripe-Prix Renaissance,3.5,"Used, Vintage & Consignment|Fashion|Shopping",88,1355,54,0.039852398524,4.22222222222
ALggEacBJY2i_m95_V07dQ,QC,-73.6140137,45.5326853,Épices Anatol,4.0,Food|Herbs & Spices|Specialty Food,88,1355,54,0.039852398524,4.22222222222
eC_J3_4kp7dHCVLn5h99cA,QC,-73.5818361,45.5254414,L'Échange,4.5,"Music & DVDs|Books, Mags, Music & Video|Vinyl Records|Shopping|Bookstores",20,158784,56,0.000352680370818,3.86607142857
adZEuEQCD2wj6rW_skD5lg,QC,-73.556718,45.500091,Hotel St Paul,4.0,Hotels & Travel|Event Planning & Services|Venues & Event Spaces|Hotels,0,207,65,0.314009661836,3.95384615385
Id4CmhvVAUai2sJwwUA0hg,QC,-73.57613,45.5138228,Fleuriste Florateria,4.0,Flowers & Gifts|Shopping|Florists,7,300,73,0.243333333333,3.82191780822
GLs7MFDWMbCI8OhwjQyQvw,QC,-73.5798669,45.5273587,American Apparel,3.0,Women's Clothing|Men's Clothing|Fashion|Shopping,20,158784,56,0.000352680370818,3.86607142857
LAQITNMPzLUh0qHB5sUl9w,QC,-73.5877502,45.5291792,Fous Desserts,4.5,Food|Desserts|Specialty Food|Chocolatiers & Shops,82,1715,18,0.0104956268222,3.94444444444
VnthOlvl4XRUgxVFF528Ag,QC,-73.5813716,45.5259011,Petits Gateaux,4.0,Food|Desserts,20,158784,56,0.000352680370818,3.86607142857
AEjLandvIGsMyXIH2_Q6QA,QC,-73.6048744,45.5233779,Épicerie Mile-End,4.5,Food|Grocery,94,4757,41,0.00861887744377,4.07317073171
MNzsIutDbC2gk0-94rkKsg,QC,-73.5631224,45.5109829,Les Foufounes Electriques,3.5,Bars|Arts & Entertainment|Nightlife|Music Venues,47,112753,60,0.000532136617208,3.64166666667
N1GZNS0W6_J-06BDlKRJ3A,QC,-73.6134022,45.5323185,Boulangerie Roma,3.5,Bakeries|Food|Desserts,88,1355,54,0.039852398524,4.22222222222
msbES6yT9Fibm-pg8gfemQ,QC,-73.5619261,45.5020891,W Montréal,4.0,Hotels & Travel|Event Planning & Services|Hotels,0,207,65,0.314009661836,3.95384615385
0pESs4uod8JK29mxLkuHug,QC,-73.6053094,45.5233826,Rona,3.5,Hardware Stores|Shopping|Home & Garden,94,4757,41,0.00861887744377,4.07317073171
OOgTO_19aejtXhXjly9U4A,QC,-73.5763922,45.4954056,Upstairs Jazz Bar & Grill,4.0,Jazz & Blues|Arts & Entertainment|Nightlife,17,940,63,0.0670212765957,3.80952380952
Y_KOPqfPJ8xkMxiVXlz3Eg,QC,-73.5893897,45.486833,Les 5 Saisons,3.5,Bakeries|Food|Delicatessen|Meat Shops|Specialty Food,63,430,32,0.0744186046512,3.578125
QvmtlM3qlz2NWPLxf8bO5w,QC,-73.5817441,45.4962791,Le Maitre Chocolatier,4.0,Food|Specialty Food|Chocolatiers & Shops,17,940,63,0.0670212765957,3.80952380952
KAJhfm3x6tzHUN3Dvytguw,QC,-73.5673732,45.4980242,Marriott Montreal Chateau Champlain,4.0,Hotels & Travel|Event Planning & Services|Hotels,31,1778,26,0.0146231721035,3.67307692308
7UX5bnjhXZcW7s56ECKcNg,QC,-73.6230300384,45.4975488989,Tabascobar,3.0,Bars|Nightlife,45,1315,19,0.0144486692015,3.86842105263
v7TTL6mjCRt2kBbNPoortg,QC,-73.5746282,45.5026036,Hotel Le Germain,4.5,Hotels & Travel|Event Planning & Services|Hotels,83,3689,111,0.0300894551369,3.62612612613
yMq08ss87udHdCWGg_aTrQ,QC,-73.6048309,45.4778002,Ben & Tournesol,3.5,Women's Clothing|Men's Clothing|Fashion|Shopping|Accessories,6,539,26,0.0482374768089,3.76923076923
ldqbS7koXcV_R1ncTGYO0Q,QC,-73.5785733,45.4944009,Sharx Pool Bar,2.5,Arts & Entertainment|Pool Halls|Casinos|Nightlife|Bowling|Active Life,17,940,63,0.0670212765957,3.80952380952
ovuj7xODfdEvABVWG-taRg,QC,-73.6367865,45.4941633,New Victoria Fish,3.5,Food|Specialty Food|Seafood Markets,3,750,11,0.0146666666667,3.54545454545
SVzMkTYIEjK9gSGnOBVvyw,QC,-73.5894814,45.4921544,Club Atwater,5.0,Active Life|Gyms|Fitness & Instruction,63,430,32,0.0744186046512,3.578125
oeN92DJVnbg-IQPRjEBOZQ,QC,-73.5839806,45.4901722,AMC Forum 22,3.5,Arts & Entertainment|Cinema,63,430,32,0.0744186046512,3.578125
rGpweqB5hfdbdnR8CRjSEA,QC,-73.5722406,45.5010482,Salon Blue Earth,3.0,Beauty & Spas,53,2454,102,0.041564792176,3.53921568627
BB4q2KKwqKKYobV1QbMObg,QC,-73.5767335,45.4979115,Restaurant Les Beaux Jeudis,3.5,Hotels & Travel|Event Planning & Services|Venues & Event Spaces|Hotels,83,3689,111,0.0300894551369,3.62612612613
PtkswoCSBSSEX2I_hopMaw,QC,-73.5671600847,45.5057879233,Belgo Building,4.0,Arts & Entertainment|Art Galleries|Shopping,53,2454,102,0.041564792176,3.53921568627
sf0aaEMyhvJXzm4uVQjhbg,QC,-73.589317,45.4972876,Montreal General Hospital,4.0,Hospitals|Medical Centers|Health & Medical,63,430,32,0.0744186046512,3.578125
B7Bwvl976sFoU5t9HOZb4Q,QC,-73.5730401,45.4960804,YWCA de Montréal,3.5,Event Planning & Services|Trainers|Fitness & Instruction|Active Life|Hotels & Travel|Hotels,83,3689,111,0.0300894551369,3.62612612613
eO0IBVrHOU3CezXieQ62SA,QC,-73.7501166,45.4565833,Aéroport International Pierre-Elliott-Trudeau,3.0,Hotels & Travel|Airports,65,51214,8,0.00015620728707,3.3125
j0MQ9bbomqifALcp-n51yw,QC,-73.6257095,45.4980573,Boucherie Et Grillade Farhat,4.0,Food|Specialty Food|Grocery,45,1315,19,0.0144486692015,3.86842105263
izip7AQTjTGbI0eyPCoq3w,QC,-73.5748981244,45.5060869477,Ecole Face,3.5,Elementary Schools|Middle Schools & High Schools|Education,53,2454,102,0.041564792176,3.53921568627
2CFeaioK5uHRVYOyloWRyg,QC,-73.5825732,45.4956565,Chateau Versailles,4.0,Hotels & Travel|Event Planning & Services|Hotels,17,940,63,0.0670212765957,3.80952380952
taZ1_DWvRkKp8-Pxw77E_g,QC,-73.627406,45.4854291,Nature Sante 2000,3.0,Health Markets|Food|Specialty Food,28,203695,18,8.83674120622e-05,3.80555555556
M4aW1uOssDRq2vGCVnmNzw,QC,-73.582481,45.4955239,Le Meridien Versailles,3.5,Hotels & Travel|Event Planning & Services|Hotels,17,940,63,0.0670212765957,3.80952380952
tRwMuNwYQ2ZSSiheRQ_TXw,QC,-73.5740741,45.4987202,Le Gentlemen's Choice,3.5,Adult Entertainment|Nightlife,83,3689,111,0.0300894551369,3.62612612613
rVrlWFC7fzZ6RjsybtHBHQ,QC,-73.5744264,45.4985066,Laser Quest-Montreal,4.0,Arts & Entertainment|Arcades,83,3689,111,0.0300894551369,3.62612612613
vqCGYrqXQdysNmCqtcWfVQ,QC,-73.5824937,45.4910836,Blu-Berry,3.5,Women's Clothing|Fashion|Shopping,63,430,32,0.0744186046512,3.578125
rqCH6wW665NnrHJju5Obww,QC,-73.5759322,45.5022019,Hotel Omni Mont-Royal,4.0,Hotels & Travel|Event Planning & Services|Hotels,83,3689,111,0.0300894551369,3.62612612613
5wtxyOJCYHE5Dhnmxcyoeg,QC,-73.5753261,45.4969141,Thursday's,2.0,Bars|Nightlife|Dance Clubs,83,3689,111,0.0300894551369,3.62612612613
5tQ03CW_nqNvZQoo7f90bg,QC,-73.5720866,45.4949815,Le Petit Prince,3.5,Hotels & Travel|Bed & Breakfast|Event Planning & Services|Hotels,83,3689,111,0.0300894551369,3.62612612613
vcwXy8Tfp6B5XmIYLmGzRA,QC,-73.5765673383,45.4803166011,SAQ,4.5,"Food|Beer, Wine & Spirits",13,1791,41,0.0228922389726,4.08536585366
PqY-AqwkkHMEIFl_5FP27A,QC,-73.5601061,45.5000497,Pub Victoria,3.0,Nightlife,0,207,65,0.314009661836,3.95384615385
VkO17-z4-Ps7jM88zlD04Q,QC,-73.5793832835,45.4987872332,Musée des beaux-arts de Montréal,4.5,Museums|Arts & Entertainment|Art Galleries|Shopping,17,940,63,0.0670212765957,3.80952380952
egxS3LZ9hu2_rWeft9QhHA,QC,-73.5680258274,45.5004666634,Fairmont  Queen Elizabeth,3.5,Hotels & Travel|Event Planning & Services|Hotels,31,1778,26,0.0146231721035,3.67307692308
QY-mEtmDGdUfHH-I-IRjQw,QC,-73.5759519,45.4801044,Super C,3.0,Food|Grocery,13,1791,41,0.0228922389726,4.08536585366
wwudsMiPu_4Usv5otUDIRQ,QC,-73.6203182,45.4963657,Boucherie de Paris,3.0,Food|Specialty Food|Meat Shops,45,1315,19,0.0144486692015,3.86842105263
D_FDV5-HZzkfVfuhwUSD4w,QC,-73.5823887,45.4921075,PA Supermarche,4.5,Food|Grocery,63,430,32,0.0744186046512,3.578125
zvcJ_l8Smukw10dQxNbWLQ,QC,-73.5738232,45.4992976,Chapters,3.5,"Books, Mags, Music & Video|Shopping|Bookstores",83,3689,111,0.0300894551369,3.62612612613
siXLqnRpAGL1isIIF_c-IQ,QC,-73.6251148,45.4792184,Lave Auto Cote St Luc,2.5,Car Wash|Automotive|Auto Detailing,28,203695,18,8.83674120622e-05,3.80555555556
19PF5-slA5AxjRy8eBikVQ,QC,-73.5735824,45.4981272,Best Western Plus - Hotel Europa,3.5,Hotels & Travel|Event Planning & Services|Hotels,83,3689,111,0.0300894551369,3.62612612613
xQMpHcYKPBBgWgd-Orz3dw,QC,-73.573149,45.499106,Chez Parée,4.0,Adult Entertainment|Nightlife,83,3689,111,0.0300894551369,3.62612612613
fzoKxhjYL3LD0QYklgxKnw,QC,-73.5765398,45.501445,Hotel Le Cantlie Suites,3.5,Hotels & Travel|Event Planning & Services|Hotels,83,3689,111,0.0300894551369,3.62612612613
OuGc_CYZ1Anx1wNIeZmyjg,QC,-73.5702183,45.5057804,SAQ,3.0,"Food|Beer, Wine & Spirits",53,2454,102,0.041564792176,3.53921568627
tHsDu9XnTdR7kLdXkzK4uw,QC,-73.5728058,45.5003194,Roots - Centreville,3.0,Leather Goods|Men's Clothing|Women's Clothing|Fashion|Shopping,83,3689,111,0.0300894551369,3.62612612613
IISdpmlmydJ27Yn3sKSGnQ,QC,-73.5672196,45.5025666,Microbytes,3.5,Computers|Shopping,53,2454,102,0.041564792176,3.53921568627
uz9nGJcrdNDVYL4E1pxYuw,QC,-73.574764,45.500142,Odyssey Bookstore,4.5,"Books, Mags, Music & Video|Shopping|Bookstores",83,3689,111,0.0300894551369,3.62612612613
oIONHAGkvpjm_Zr9ztroLQ,QC,-73.5730615,45.4990068,Club La Boom,3.0,Nightlife,83,3689,111,0.0300894551369,3.62612612613
UGixJyKGHLVdSepMvJ7G2w,QC,-73.585324,45.489599,Pharmaprix,3.5,Shopping|Drugstores,63,430,32,0.0744186046512,3.578125
_uVa_LnA_TU4nfbaM9-6bQ,QC,-73.577693,45.495413,Arc'teryx,5.0,Sporting Goods|Fashion|Shopping|Sports Wear|Outdoor Gear,17,940,63,0.0670212765957,3.80952380952
TSqnLFfqvHvAzrh4qtUBwA,QC,-73.5758907,45.4965879,Festival Fantasia,5.0,Arts & Entertainment|Cinema,83,3689,111,0.0300894551369,3.62612612613
7sg7Rhw9163kccOTCHa-jg,QC,-73.5713753368,45.4978931154,Le Centre Sheraton Montreal Hotel,3.5,Hotels & Travel|Event Planning & Services|Hotels,83,3689,111,0.0300894551369,3.62612612613
fHJbnthH684x_71rIyuK0g,QC,-73.5723853,45.5041153,Dunkin' Donuts (Canada) Ltee,3.5,Food|Donuts,53,2454,102,0.041564792176,3.53921568627
b5quzbxKrYZBh5_wqzU4Bg,QC,-73.5725604,45.5001959,HMV,3.5,"Music & DVDs|Books, Mags, Music & Video|Shopping",83,3689,111,0.0300894551369,3.62612612613
prOUlEKLOFH7A7lhSutxXQ,QC,-73.6027506,45.4793874,Sunsource Food,4.0,Food|Grocery,6,539,26,0.0482374768089,3.76923076923
T-AJ5X1qt5uyBkWGV5OTgA,QC,-73.5759858,45.4796128,Boulangerie Au Pain Dore Ltee,4.5,Bakeries|Food,13,1791,41,0.0228922389726,4.08536585366
tq06j0BiOfr0t2NfsHBxiw,QC,-73.5760887,45.4922871,Le Nouvel Hotel & Spa,2.5,Hotels & Travel|Event Planning & Services|Hotels,17,940,63,0.0670212765957,3.80952380952
ZjVHNh-fNE_yLt4WmFfNfw,QC,-73.5690028,45.5027724,Popeye's Suppléments Montréal,4.0,Health Markets|Food|Specialty Food,53,2454,102,0.041564792176,3.53921568627
zfBj-27JseVvIdOla-kIaQ,QC,-73.5714757,45.5056078,La Maison du Jazz,3.0,Jazz & Blues|Arts & Entertainment|Nightlife|Bars,53,2454,102,0.041564792176,3.53921568627
jNhw8VBxlI1enbmqJ6N1cg,QC,-73.5681771,45.5014626,Galerie Place Ville Marie,3.5,Shopping Centers|Shopping,53,2454,102,0.041564792176,3.53921568627
lpTuLSEYYBuVCJQEH6TRyA,QC,-73.5774933,45.4982192,Stogies Cigares Lounge,3.5,Tobacco Shops|Bars|Shopping|Nightlife|Lounges,83,3689,111,0.0300894551369,3.62612612613
Rj7QnT743BqwKDGmLhx2lQ,QC,-73.5735456,45.4998573,H & M,3.5,Women's Clothing|Men's Clothing|Fashion|Shopping|Accessories,83,3689,111,0.0300894551369,3.62612612613
QW813YMHbjGCCdX_VwWuig,QC,-73.5734207,45.4969553,Novotel Montreal Centre,3.5,Hotels & Travel|Event Planning & Services|Hotels,83,3689,111,0.0300894551369,3.62612612613
cPF72U2KCvwtXMUa_9DsCA,QC,-73.5536021243,45.4857237728,Costco Wholesale,4.0,Shopping|Wholesale Stores,78,1253,15,0.0119712689545,4.06666666667
sVd8bevKXDYeggHRcBT-cQ,QC,-73.5723526,45.5023402,Salon Odette Coiffure Hommes & Dames,2.5,Beauty & Spas,53,2454,102,0.041564792176,3.53921568627
lU6z_3ZgwQrKg0og3lD-WQ,QC,-73.569266,45.5062858,Festival International de Jazz de Montreal,4.5,Arts & Entertainment|Festivals,53,2454,102,0.041564792176,3.53921568627
nerGkpqj5QAZhzeYYrfOUw,QC,-73.5750555,45.5019971,Cheap Thrills,4.5,"Music & DVDs|Books, Mags, Music & Video|Vinyl Records|Shopping|Bookstores",83,3689,111,0.0300894551369,3.62612612613
9JaXk_9PPJVgmf0-_TEozA,QC,-73.6428168,45.5167604,Dupond & Dupont,4.5,Bakeries|Food,67,3898,7,0.00179579271421,3.35714285714
bOj86s5t5jPomQk7qUJ39Q,QC,-73.5670092,45.5061907,Fabricville,3.0,Arts & Crafts|Shopping|Fabric Stores,53,2454,102,0.041564792176,3.53921568627
vAKFO07ntdytltqavowUXA,QC,-73.6197376,45.5275056,New Homemade Kosher Bakery,4.5,Bakeries|Food,25,1488,15,0.0100806451613,3.86666666667
kqIP3gJqc5SSh19bVnJ1aw,QC,-73.5770912,45.4985001,Ben & Jerry's,4.5,Food|Ice Cream & Frozen Yogurt,83,3689,111,0.0300894551369,3.62612612613
0FlgQqCX4rFOTWGonrZLiw,QC,-73.5744592,45.4997149,Marche Cosmopolitain,4.0,"Food|Beer, Wine & Spirits|Grocery|Convenience Stores",83,3689,111,0.0300894551369,3.62612612613
xlckHwZUaXevl0ywEiDeJw,QC,-73.5595098,45.4927344,Velomakak,4.0,Sporting Goods|Bikes|Shopping,31,1778,26,0.0146231721035,3.67307692308
FCc2t3iBWZ5lQM6CsFSVXQ,QC,-73.5758318,45.4951126,Pang Pang Karaoke Bar,3.0,Karaoke|Nightlife,17,940,63,0.0670212765957,3.80952380952
hkJrU7khgFwwj7B4NwPXzw,QC,-73.5720164,45.5061379,Medisys,2.5,,53,2454,102,0.041564792176,3.53921568627
EH8nf6QuulriKVQFM0cN6w,QC,-73.5711192,45.5004743,Location D'autos Et De Camions Avis,2.5,Hotels & Travel|Car Rental,53,2454,102,0.041564792176,3.53921568627
-bgbw5LcKJ97kumwljc8kw,QC,-73.5710822,45.4802317,Auto Spa the Wash,4.5,Car Wash|Automotive|Auto Detailing,13,1791,41,0.0228922389726,4.08536585366
7ziq0IevJrSU8e14jYR5gw,QC,-73.573629,45.493247,Enterprise Rent-A-Car,3.0,Hotels & Travel|Car Rental,83,3689,111,0.0300894551369,3.62612612613
S7xRbOD7oTUVgKFugVQkQg,QC,-73.57239,45.5012661,La Maison Simons,4.0,Department Stores|Fashion|Shopping,53,2454,102,0.041564792176,3.53921568627
CnXQQCMuhbfhp3zpXQIIug,QC,-73.5771509,45.4978694,Ziggy's Pub,4.0,Nightlife,83,3689,111,0.0300894551369,3.62612612613
AR2btPtIeLpguiO4HMPCGQ,QC,-73.5734243,45.5002739,Club Monaco,3.5,Women's Clothing|Arts & Crafts|Fashion|Shopping|Men's Clothing,83,3689,111,0.0300894551369,3.62612612613
b4jCXQ9TFLY6F6Q7VpOqxQ,QC,-73.5804663,45.4976411,Optique Town,4.5,Optometrists|Health & Medical,17,940,63,0.0670212765957,3.80952380952
eIxI8HjV64E-1hgNfS1F6A,QC,-73.5763032762,45.4982487595,Hotel De La Montagne,3.5,Hotels & Travel|Event Planning & Services|Hotels,83,3689,111,0.0300894551369,3.62612612613
pOzPjIjn93IJlne5laA25g,QC,-73.6372361,45.4950906,Restaurant Bahay Kubo,2.5,,3,750,11,0.0146666666667,3.54545454545
g1G85otgU3ROxVDNS2viuw,QC,-73.5801696,45.4980015,La Casa Del Habano,4.5,Tobacco Shops|Shopping,17,940,63,0.0670212765957,3.80952380952
4zT0uX0TYjIZckPdtkOYSw,QC,-73.6257812,45.508551,Metro Wilderton,2.5,Food|Grocery,67,3898,7,0.00179579271421,3.35714285714
113E_4uCDOX63w4q_RCQzQ,QC,-73.6016511,45.4783336,Hopital Veterinaire De Montreal,3.5,Pet Services|Veterinarians|Pets,6,539,26,0.0482374768089,3.76923076923
Ct_gkjsxS_F022QPJ5h9xg,QC,-73.5724707,45.498685,Kant Photo Studio,3.5,Shopping|Photography Stores & Services,83,3689,111,0.0300894551369,3.62612612613
f1X9PCUnfXG7f0TkLbjBNQ,QC,-73.5782696,45.5013986,Hotel Ambrose,4.0,Hotels & Travel|Bed & Breakfast|Event Planning & Services|Hotels,83,3689,111,0.0300894551369,3.62612612613
fFEVYnq99wL_LWnP3eQ8dQ,QC,-73.5256609013,45.5056013086,Casino de Montréal,3.0,Arts & Entertainment|Casinos,50,2385,6,0.00251572327044,3.75
pDZr8zV6Z01HQ5RsZ0hf-Q,QC,-73.6057783,45.4769664,Zone,4.5,Shopping|Home Decor|Interior Design|Home & Garden|Kitchen & Bath|Home Services,6,539,26,0.0482374768089,3.76923076923
363WWqIZiRaIyWDS8Fh8AA,QC,-73.571239,45.501948,Ongles Queen Nails,1.5,Beauty & Spas|Shopping|Cosmetics & Beauty Supply|Nail Salons,53,2454,102,0.041564792176,3.53921568627
S_esp1ZJ6sHfpH8tATjGDA,QC,-73.5783651,45.4984502,Le Profil Coiffure,2.5,Beauty & Spas,83,3689,111,0.0300894551369,3.62612612613
Ds9cKpbfPiXb11tjrMDvLw,QC,-73.5761124,45.4825035,Studio Breathe,5.0,Active Life|Gyms|Fitness & Instruction,13,1791,41,0.0228922389726,4.08536585366
BBLL0jTsIdUZ0HEIOnmh8Q,QC,-73.5743999,45.4980463,Urban Outfitters,3.0,"Fashion|Shopping|Books, Mags, Music & Video|Men's Clothing|Women's Clothing|Vinyl Records",83,3689,111,0.0300894551369,3.62612612613
ij-y9PKAetug94jcTbxChg,QC,-73.5763132,45.4965805,Rudsak Collection,3.0,Leather Goods|Fashion|Shopping,83,3689,111,0.0300894551369,3.62612612613
CbSX3GNz3UHZ59wf366UcQ,QC,-73.5781751,45.4973823,Concordia University,4.5,Colleges & Universities|Education,17,940,63,0.0670212765957,3.80952380952
362izOgja3qpNfdfRBPTbw,QC,-73.5700981,45.5027678,Club Super Contact,2.5,Adult Entertainment|Nightlife,53,2454,102,0.041564792176,3.53921568627
_bk-MvMWcIVwzGL18JGIKA,QC,-73.5693525,45.4947616,Hotel Du Nouveau Forum,2.5,Hotels & Travel|Event Planning & Services|Hotels,31,1778,26,0.0146231721035,3.67307692308
-AuffQ8MxLJhFUBuSBNp_g,QC,-73.577006,45.506407,McGill University,4.5,Colleges & Universities|Education,53,2454,102,0.041564792176,3.53921568627
NSGrSt6KZn8gDtqw_Vh1mA,QC,-73.5703293,45.5026545,Club Super Sexe,3.0,Adult Entertainment|Nightlife,53,2454,102,0.041564792176,3.53921568627
mKJVPv7uwsphURu7xXl_4Q,QC,-73.5723526,45.5023402,Lenscrafter,3.0,Optometrists|Health & Medical,53,2454,102,0.041564792176,3.53921568627
C_fChFG2_DSpPHXTCHdo7g,QC,-73.5753686,45.4940975,Hotel Maritime Plaza,2.5,Hotels & Travel|Event Planning & Services|Hotels,17,940,63,0.0670212765957,3.80952380952
crNzc-8DCqdBb1YhBSfrSw,QC,-73.5696197,45.5039381,Christ Church Cathedral,4.0,Religious Organizations,53,2454,102,0.041564792176,3.53921568627
XDu8TTXGZMXdbL8rTrY9lg,QC,-73.5727303,45.5004082,Off the Hook,4.0,Fashion|Shopping|Sporting Goods|Men's Clothing|Women's Clothing|Sports Wear,83,3689,111,0.0300894551369,3.62612612613
yQEfxrdi_hoFo71aprvqBQ,QC,-73.5730401,45.4960804,Hotel Y De Montreal,5.0,Hotels & Travel|Event Planning & Services|Hotels,83,3689,111,0.0300894551369,3.62612612613
sDi-52vUGNDL3wfh7k2FbQ,QC,-73.5787514,45.493982,Saq,3.5,"Food|Beer, Wine & Spirits",17,940,63,0.0670212765957,3.80952380952
8oPqLnINqgocRlCwcwk6bQ,QC,-73.5713041,45.502466,Centre Eaton,3.5,Shopping Centers|Shopping,53,2454,102,0.041564792176,3.53921568627
d6oXFOut9FDvxEO2xjVknQ,QC,-73.644846,45.490891,Quality Hotel Midtown,3.5,Hotels & Travel|Event Planning & Services|Hotels,3,750,11,0.0146666666667,3.54545454545
C2q0JokLJTHDju8ljDstvg,QC,-73.6228009,45.4977245,Marche du Village Côte des Neiges,4.0,Food|Grocery,45,1315,19,0.0144486692015,3.86842105263
jo3O83ASiEIQ9vPQNh1pgw,QC,-73.5739012,45.4987094,Lush Cosmetics,4.0,Shopping|Cosmetics & Beauty Supply|Beauty & Spas,83,3689,111,0.0300894551369,3.62612612613
j_Mfxog4RUlv3J3KSNRWnw,QC,-73.570762769,45.5020717196,Les 3 Brasseurs,3.0,Pubs|Food|Bars|Breweries|Nightlife,53,2454,102,0.041564792176,3.53921568627
ImmCEJSYlPK-S-gxs8CCnA,QC,-73.5859548,45.4888997,Centre Commercial Alexis Nihon,3.5,Shopping Centers|Shopping,63,430,32,0.0744186046512,3.578125
dJC5OybrkQzYUyheq_d9jw,QC,-73.5723526,45.5023402,Indigo,4.0,"Shopping|Books, Mags, Music & Video|Gift Shops|Bookstores|Electronics|Flowers & Gifts",53,2454,102,0.041564792176,3.53921568627
D9aoaSL6Ggvq-ZVi9A3kcw,QC,-73.5720331,45.500769,Jean Coutu,3.0,Optometrists|Health & Medical|Shopping|Eyewear & Opticians|Drugstores,53,2454,102,0.041564792176,3.53921568627
DhAzgpDv8EW9M0YTxMscUA,QC,-73.5839806,45.4901722,Comedy Nest (the),4.0,Arts & Entertainment,63,430,32,0.0744186046512,3.578125
I6neVm1APlXJZI7zh2tnnQ,QC,-73.5785551,45.4985419,Divine Chocolatier,4.5,Food|Specialty Food|Chocolatiers & Shops,83,3689,111,0.0300894551369,3.62612612613
chIyU8aGX4zct6GJqKWTOQ,QC,-73.5721372,45.4992158,Peel Pub,3.0,Pubs|Bars|Nightlife,83,3689,111,0.0300894551369,3.62612612613
HLSdBO8FknYTfa3u-GsvcQ,QC,-73.6252949,45.5211907,Metro Richelieu,4.5,Food|Grocery,85,18163,13,0.000715740791719,4.23076923077
8XRHHyeJ4oeqs6PxTqqjuA,QC,-73.5767806,45.4987217,Club Wanda's,3.0,Adult Entertainment|Nightlife,83,3689,111,0.0300894551369,3.62612612613
TxE00aA7KvoyRro_i6Ox8g,QC,-73.566268,45.498248,Atrium,3.0,Active Life|Skating Rinks,31,1778,26,0.0146231721035,3.67307692308
RTCQsDqN01oJDLLo5sHCdQ,QC,-73.5713041,45.502466,Tour De Jeux,4.0,Hobby Shops|Shopping|Toy Stores,53,2454,102,0.041564792176,3.53921568627
Q_Go71NA8vTq2dL5Fha59A,QC,-73.5786662713,45.4993518416,Holt Rendrew,3.0,Women's Clothing|Fashion|Shopping,83,3689,111,0.0300894551369,3.62612612613
5cHIwjTIlUNY4IhxXnwH0A,QC,-73.5717433,45.5070984,Holiday Inn Hotel Montreal-Midtown,2.5,Hotels & Travel|Event Planning & Services|Hotels,53,2454,102,0.041564792176,3.53921568627
PTfw8QBsT8RIFCj--93FFQ,QC,-73.5713041,45.502466,Body Shop,4.5,Skin Care|Shopping|Cosmetics & Beauty Supply|Beauty & Spas,53,2454,102,0.041564792176,3.53921568627
-f4nL7Td0jOKbRvi9mThqA,QC,-73.5720459,45.5045566,Essence Restaurant Bar Lounge,3.5,Nightlife,53,2454,102,0.041564792176,3.53921568627
MTZmxqQiuLMZvvbmxOaTPA,QC,-73.5624111,45.4998612,Delta Centre-Ville,3.0,Hotels & Travel|Event Planning & Services|Hotels,31,1778,26,0.0146231721035,3.67307692308
lpOlN9JDQwl6KIvcYtce1A,QC,-73.5805394,45.4848318,Cycle Technique,2.5,Sporting Goods|Bikes|Shopping,13,1791,41,0.0228922389726,4.08536585366
NQckvD23dSMqnVOItPz3ZQ,QC,-73.5779391,45.4998392,Ritz-Carlton Montréal,5.0,Hotels & Travel|Event Planning & Services|Hotels,83,3689,111,0.0300894551369,3.62612612613
H64dypD_UfxAw_RfOTZ-9Q,QC,-73.6483053,45.4918782,Dollar Cinéma,4.0,Arts & Entertainment|Cinema,3,750,11,0.0146666666667,3.54545454545
1wqf_uymkDuOpvICtUATqQ,QC,-73.5729949,45.4939163,HI Montreal Hostel,4.0,Hotels & Travel|Hostels,83,3689,111,0.0300894551369,3.62612612613
fpQIrQ60meYNl6XGbTBl8w,QC,-73.5746579,45.4997179,YMCA Centre-Ville,4.0,Specialty Schools|Language Schools|Trainers|Fitness & Instruction|Active Life|Education,83,3689,111,0.0300894551369,3.62612612613
lWOgTfz55GI3BqQF0GbPBQ,QC,-73.5720506,45.5002628,Centre Infotouriste De Montreal,4.5,Hotels & Travel|Tours,83,3689,111,0.0300894551369,3.62612612613
TAAIVX3NvII9azI2VvNq-Q,QC,-73.62256,45.5142158,Anber Moving & Storage,5.0,Movers|Home Services,85,18163,13,0.000715740791719,4.23076923077
9qgLaPU10-Li7Up9t_O1lg,QC,-73.6210921,45.4956431,Boulangerie Au Pain Dore Ltee,4.0,Bakeries|Food,45,1315,19,0.0144486692015,3.86842105263
cxWQoAQ12ncGq2vk9OswlQ,QC,-73.572599,45.5067196,Four Points by Sheraton Hotel & Suites,2.5,Hotels & Travel|Event Planning & Services|Hotels,53,2454,102,0.041564792176,3.53921568627
fMBgHhtXRFcHRyEkyT3X5A,QC,-73.5756908,45.4962273,Grumpy's,4.0,Nightlife,83,3689,111,0.0300894551369,3.62612612613
gjSuMaaDO8EOpqjvmjr4Ag,QC,-73.567876,45.5046798,Best Buy,2.0,Local Services|Electronics|Shopping|IT Services & Computer Repair,53,2454,102,0.041564792176,3.53921568627
N-j7w5NNv6Ioy7EgQUoadA,QC,-73.5714089,45.5013793,Sports Experts,2.5,Sporting Goods|Fashion|Shopping|Sports Wear,53,2454,102,0.041564792176,3.53921568627
_IBpAWtOXExY5FRg24S_PQ,QC,-73.581373,45.4917608,Hotel Du Fort,4.0,Hotels & Travel|Event Planning & Services|Hotels,17,940,63,0.0670212765957,3.80952380952
K83UJqM4dgEdD5_JUPLd8g,QC,-73.5754907,45.4829323,Itsi Bitsi,3.0,Bakeries|Food,13,1791,41,0.0228922389726,4.08536585366
z55D63Q5OCceb-_9yZwGmg,QC,-73.5774564743,45.501534476,Sofitel Montreal Golden Mile,4.0,Hotels & Travel|Event Planning & Services|Hotels,83,3689,111,0.0300894551369,3.62612612613
VA_2MctE5uH7Oej61jtAhg,QC,-73.5673278,45.5058349,Ashtanga Yoga Montreal,3.5,Active Life|Yoga|Fitness & Instruction,53,2454,102,0.041564792176,3.53921568627
KcKwjGKCeWL40jBm3zHnwA,QC,-73.573362,45.5043077,McCord Museum,3.5,Museums|Arts & Entertainment,53,2454,102,0.041564792176,3.53921568627
mYizRZREyzPBwUYhl_DblA,QC,-73.5779662,45.4947451,Billiard Fats,2.5,Casinos|Arts & Entertainment|Pool Halls|Nightlife,17,940,63,0.0670212765957,3.80952380952
RkcCqe8y0qIAYPC8zGAKbA,QC,-73.5724667,45.5070029,L Appartement Hotel Montreal,4.0,Hotels & Travel|Event Planning & Services|Hotels,53,2454,102,0.041564792176,3.53921568627
TWWZihdRbsv4zDb4_NqrFA,QC,-73.624679,45.52664,Restaurant Afrodiziac,2.0,,25,1488,15,0.0100806451613,3.86666666667
Cu5c7lqVyTwOr_Vge4HARA,QC,-73.5709730303,45.506297502,Delta Montreal,4.0,Hotels & Travel|Event Planning & Services|Hotels,53,2454,102,0.041564792176,3.53921568627
wWxP2WU6nE51tU4qCIbFAw,QC,-73.5790175,45.4966426,Al-Taib Express,2.5,,17,940,63,0.0670212765957,3.80952380952
_PmE57ktWIX5XaYGojpWaQ,QC,-73.5752664,45.5030786,Centre Mont-Royal,3.0,Event Planning & Services|Venues & Event Spaces,83,3689,111,0.0300894551369,3.62612612613
qzRHHG1mlK_oEZPRhIUhQg,QC,-73.5843811,45.4913241,La Tour Belvédère,3.0,Hotels & Travel|Event Planning & Services|Hotels,63,430,32,0.0744186046512,3.578125
Aqss4mOSLfgAsmuUE--uug,QC,-73.5237987,45.5037314,Grand Prix Du,3.5,Active Life|Sports Clubs,50,2385,6,0.00251572327044,3.75
AI_V3qAMK7OBjSO-yjloYA,QC,-73.5815207,45.4920783,Provigo,3.0,Food|Grocery,17,940,63,0.0670212765957,3.80952380952
cDwpL0gGux_FPXbNNUScXg,QC,-73.580826,45.4972625,Platine Coiffure & Esthetique,5.0,Beauty & Spas,17,940,63,0.0670212765957,3.80952380952
0YTDinp9GH4kj1qp5pfeeA,QC,-73.5745557,45.4965151,Madhatter Pub,3.5,Nightlife,83,3689,111,0.0300894551369,3.62612612613
XDx4K-4DrLAhM_2CjHGoKg,QC,-73.5807331,45.4931319,Patisserie Wawel,4.0,Bakeries|Food,17,940,63,0.0670212765957,3.80952380952
gvPtKe04Z4PynwizMKzTSg,QC,-73.6026167,45.479011,Metro,2.5,Food|Grocery,6,539,26,0.0482374768089,3.76923076923
TBfdUhIYmjewQmQA-e3X1g,QC,-73.566459,45.499918,Boulangerie Premiere Moisson,4.5,Bakeries|Food|Desserts|Event Planning & Services|Caterers,31,1778,26,0.0146231721035,3.67307692308
Y9Gg-5diQ7X8fPWx1-4lfA,QC,-73.6207922,45.4958451,Hotel Terrasse Royale,3.5,Hotels & Travel|Event Planning & Services|Hotels,45,1315,19,0.0144486692015,3.86842105263
u2aQo96KFBYyDCkyHDb4Xw,QC,-73.5682115,45.504565,Istori Resto Bar Billard,3.5,Casinos|Arts & Entertainment|Pool Halls|Nightlife,53,2454,102,0.041564792176,3.53921568627
hqhvUijR0d_3xawcdkTRYQ,QC,-73.6218456,45.5108993,Midtown Le Sporting Club Sanctuaire,3.0,Bars|Tennis|Nightlife|Trainers|Fitness & Instruction|Active Life|Sports Bars,85,18163,13,0.000715740791719,4.23076923077
s-49kZTF3tEv8SoEaLjepQ,QC,-73.6250922,45.4816013,Udisco,2.5,Hobby Shops|Shopping,28,203695,18,8.83674120622e-05,3.80555555556
G3g7az8o9HBN1TUngLvZaw,QC,-73.570973,45.5048218,Chocolat Belge Leonidas,4.5,Food|Specialty Food|Chocolatiers & Shops,53,2454,102,0.041564792176,3.53921568627
b99lIkXrffK9DoCjiwvEHQ,QC,-73.585324,45.489599,Winners,4.0,Department Stores|Fashion|Shopping,63,430,32,0.0744186046512,3.578125
CCqXTAet0NI4WxmXZeLSzQ,QC,-73.5805704,45.4751805,Comedyworks,4.5,Nightlife|Comedy Clubs,13,1791,41,0.0228922389726,4.08536585366
WNxKTZmD0GdpRT2J4ue0vQ,QC,-73.5767776,45.5021306,Hotel Best Western Ville-Marie,3.0,Hotels & Travel|Event Planning & Services|Venues & Event Spaces|Hotels,83,3689,111,0.0300894551369,3.62612612613
gBnIN_2i6zRcVfEQmLbHRA,QC,-73.5682314,45.5046088,Souvenirs Ephesus,4.5,Shopping|Home & Garden|Furniture Stores,53,2454,102,0.041564792176,3.53921568627
RSQjEvl1AgF3B2pUC1-Dvg,QC,-73.617807,45.504274,Universite De Montreal,3.5,Colleges & Universities|Education,45,1315,19,0.0144486692015,3.86842105263
Ew7bzWG1NisYv1GcZBoCRA,QC,-73.5671814,45.4771194,Iga Marche Etop,3.0,Food|Grocery,78,1253,15,0.0119712689545,4.06666666667
G159iAPBZxJ8QKlexLNLeg,QC,-73.5713041,45.502466,Kimchi,2.5,,53,2454,102,0.041564792176,3.53921568627
cEBp-X0hm8NVZQXyVdKHPQ,QC,-73.581443,45.4966076,Clinique Medicale Metro-Medic Centre Ville,2.0,Medical Centers|Health & Medical,17,940,63,0.0670212765957,3.80952380952
yYOKp42L05K1Wd7dtYXOMA,QC,-73.5790989,45.4917525,Centre Canadien d'Architecture,4.0,"Museums|Books, Mags, Music & Video|Arts & Entertainment|Shopping|Bookstores",17,940,63,0.0670212765957,3.80952380952
RZ-hjIkwe4Q6iWF3XE4_YA,QC,-73.6032631,45.4795084,Pâtisserie de Gascogne,4.5,Food|Desserts,6,539,26,0.0482374768089,3.76923076923
